OBJECTID,name,address,longitude,latitude,type
1,上海梓阔实业有限公司,外滩街道南无锡路20号后门,121.480862,31.23855,公司企业
2,遇见小面(恒基名人购物中心店),南京东路300号恒基名人购物中心B1,121.483907,31.238193,餐饮服务
3,上海经典小吃(汉口店),福建中路盆汤弄108弄(南京东路地铁站1号口步行390米),121.480072,31.23679,餐饮服务
4,零距离家园共享空间,贵州路与天津路交叉口西北20米,121.47616,31.236074,科教文化服务
5,德哥灰指甲甲沟炎跖疣鸡眼脚气修复(人民广场店),贵州路与宁波路交叉口南40米,121.476048,31.236316,医疗保健服务
6,兴业银行24小时自助银行(黄浦支行),天津路与天津路170弄交叉口西40米,121.482759,31.238179,金融保险服务
7,老大同·善道米饮(南京东路店),江西中路306号,121.486463,31.238378,购物服务
8,寻喜(上海南京路步行街店),宁波路587弄2-7号爱民弄,121.476194,31.236326,餐饮服务
9,黄浦区的民宿(人民广场/外滩四店),江西中路与香港路交叉口西南80米,121.484214,31.24191,住宿服务
10,扬州扦脚足疗养生(宁波小区店),北京东路265号(南京东路地铁站6号口步行230米),121.484441,31.240378,生活服务
11,中华老字号(南京路步行街店),南京东路558号南京路步行街内(东侧),121.482243,31.237061,餐饮服务
12,未来人留学,上海市黄浦区山西南路350号物资大厦24楼2405-06室,121.481612,31.239505,科教文化服务
13,宠物联萌(协和里店),青岛路27号(新闸路地铁站6号口步行310米),121.470622,31.235733,购物服务
14,老上海汤包馆,南京东路558号南京路步行街内(东侧),121.483563,31.237625,餐饮服务
15,上海田甜之家特色民宿,福瑞小区(北门)(新闸路147弄),121.470546,31.238141,住宿服务
16,西藏中路-路侧停车位,新闸路地铁站6号口步行490米,121.473234,31.240021,交通设施服务
17,维也纳酒店(上海南京路步行街店),贵州路79号(近上海第一食品商店),121.476285,31.235584,住宿服务
18,张奶奶海参(南京东路店),浙江中路437号,121.477493,31.23675,医疗保健服务
19,上海华东电信研究院,北京东路668号上海科技京城G区F7层,121.477582,31.239234,科教文化服务
20,国家电网汽车充电站(上海静安区宝格丽电动汽车充电站),华侨城苏河湾东区88号院停车场,121.480811,31.242235,汽车服务
21,Dancing monkey,南苏州路933号,121.474736,31.240498,科教文化服务
22,南京路行李寄存(暂停营业),福建中路387号(南京东路地铁站1号口步行410米),121.479859,31.23693,生活服务
23,上海伊间联盟tih20071015290003公寓,河南中路与南京路步行街交叉口西北40米,121.484547,31.237734,住宿服务
24,BONI堡尼(新世界城店),南京西路2-68号新世界城F5(人民广场地铁站7号口旁),121.473256,31.234871,购物服务
25,《义勇军进行曲》首次播放处,北京东路780号黄浦剧场,121.475625,31.238451,风景名胜
26,上海哈尔滨食品厂,南京东路228号新世界大丸百货B2层,121.484961,31.238253,公司企业
27,集成实业有限公司,山西南路无锡小区(南京东路地铁站1号口步行390米),121.481095,31.239508,公司企业
28,福建馄饨王(暂停营业),南京西路与西藏中路交叉口西南80米(人民广场地铁站7号口旁),121.473775,31.234315,餐饮服务
29,福建路桥,黄浦区,121.478882,31.240281,地名地址信息
30,定兴社区,黄浦区,121.470909,31.235145,地名地址信息
31,Bunny Wonderland(衍庆里店),南苏州路955号101室(曲阜路地铁站2号口步行430米),121.47344,31.240395,餐饮服务
32,上海登巴温馨小居客栈,山西南路239号(南京东路地铁站1号口步行240米),121.481792,31.237993,住宿服务
33,全科-专科联合门诊,宁波路321号(南京东路地铁站1号口步行350米),121.481014,31.238321,医疗保健服务
34,山东北路社区,黄浦区,121.483126,31.239349,地名地址信息
35,七个串(宁波路店),宁波路240号(南京东路地铁站5号口步行240米),121.482498,31.239048,餐饮服务
36,华华理发店,牯岭路房地大厦,121.471163,31.235974,生活服务
37,凯旋电台旧址,南京东路720号上海市第一食品商店5层,121.476679,31.235536,风景名胜
38,周恩来同志发布《七月指示》所在地,贵州路160号中国饭店(现上海铁道宾馆),121.476088,31.236786,风景名胜
39,上海汉和医中医诊所有限公司,北京东路540-544号,121.479775,31.23942,医疗保健服务
40,云中社区,黄浦区,121.475638,31.236352,地名地址信息
41,咸恒广场,贵州路67号(人民广场地铁站19号口步行310米),121.476304,31.235436,风景名胜
42,上海市格致初级中学(应昌期围棋校区),天津路180号应氏大厦(南京东路地铁站1号口步行140米),121.482442,31.238002,科教文化服务
43,中国移动,南京东路558号南京路步行街(东北角),121.480118,31.237023,购物服务
44,上海外滩333酒店(南京东路地铁站店),南苏州路333号华隆大厦F3层,121.483953,31.241914,住宿服务
45,北京社区,黄浦区,121.484309,31.241767,地名地址信息
46,第一百货商业中心-无障碍洗手间,南京东路800-830号(近西藏中路)第一百货商业中心F6,121.474425,31.235957,公共设施
47,中兴建设,北苏州路790号,121.477001,31.241665,公司企业
48,小炒地锅鸡,山西南路253号(南京东路地铁站1号口步行220米),121.481765,31.238053,餐饮服务
49,乐充充电港陆黄浦中心直流汽车充电,牛庄路与六合路交叉口东北20米,121.474862,31.236946,汽车服务
50,上海鸢尾花公寓(天津路分店),南京东路558号南京路步行街,121.48301,31.23873,住宿服务
51,海一五金,北京东路432号305-5室,121.481516,31.240196,购物服务
52,郭阿姨月亮馍,宁波路201号(南京东路地铁站6口步行120米),121.483377,31.238998,餐饮服务
53,CU咖啡(人民广场店),云南北路16号(人民广场地铁站19号口步行380米),121.475358,31.236649,餐饮服务
54,老上海小吃,牛庄路641弄西南门旁,121.47714,31.237361,餐饮服务
55,晓芹海参(外滩店),浙江中路436号,121.477725,31.236629,医疗保健服务
56,上海老友记青年旅舍,长沙路雅乐居广场7楼(人民广场地铁站7号口步行260米),121.473108,31.235906,住宿服务
57,上海众市实业有限公司停车场,天津路271号(南京东路地铁站1号口步行300米),121.481228,31.23739,交通设施服务
58,华东理工大学网院新世界学习中心,天津路170弄东北侧(南京东路地铁站5号口步行130米),121.483209,31.238295,科教文化服务
59,恒基名人商业大厦地下停车场(出入口),南京东路300号恒基名人购物中心B4,121.484083,31.238298,交通设施服务
60,恒基名人商业大厦地下停车场,天津路与河南中路交叉口西南40米(南京东路地铁站5号口旁),121.484115,31.23831,交通设施服务
61,黄焖鸡米饭,牛庄路与云南北路交叉口东20米,121.475441,31.237021,餐饮服务
62,上海宏沃仪表制造有限公司上海销售处,山西南路310号(南京东路地铁站1号口步行330米),121.481493,31.238981,公司企业
63,上海花爷.公寓,南京东路558号南京路步行街,121.482238,31.240247,住宿服务
64,新世界城地下停车场(出入口),南京西路2-88号新世界城F1,121.47341,31.235531,交通设施服务
65,新世界城地下停车场(出口),南京西路2-88号新世界城F1,121.473004,31.235292,交通设施服务
66,新世界城立体停车场(入口),人民广场地铁站8号口步行170米,121.472482,31.234685,交通设施服务
67,上海环亚保险经纪有限公司,六合路98号港陆黄浦中心13层,121.475,31.236576,金融保险服务
68,上海科技京城地下停车场,福建中路与南苏州路交叉口西南40米,121.478601,31.239689,交通设施服务
69,上海科技京城地下停车场(出入口),福建中路与南苏州路交叉口西南40米,121.478624,31.239693,交通设施服务
70,上海科技京城地下停车场(出入口),浙江中路与厦门路交叉口东南80米,121.477043,31.239272,交通设施服务
71,美珍香(新世界城店),南京西路2-68号南楼B1FA-3室,121.473584,31.234382,餐饮服务
72,山东水饺王(贵州路店),贵州路131弄4-16号后逢吉里,121.476123,31.236061,餐饮服务
73,注册公司代理记帐,浙江中路398号春申江大厦509B室,121.478157,31.236288,公司企业
74,汉庭酒店(南京路步行街店),香粉弄30号,121.479609,31.236386,住宿服务
75,上海外滩璞硯酒店,北京东路398号(南京东路地铁站6号口步行350米),121.482303,31.240459,住宿服务
76,新世界大丸百货地下停车场(出口),天津路3号(南京东路地铁站6号口步行150米),121.485539,31.238795,交通设施服务
77,新世界大丸百货地下停车场,江西中路与天津路交叉口南40米,121.486037,31.238787,交通设施服务
78,新世界大丸百货地下停车场(入口),新世界大丸百货地下停车场(南京东路地铁站6号口步行240米),121.486089,31.2388,交通设施服务
79,瑞尔齿科(名人诊所),南京东路300号恒基名人购物中心L4层,121.483882,31.2377,医疗保健服务
80,上海黄浦区荣庆进修学院,北京东路666号科技京城西楼4A室,121.477115,31.23905,科教文化服务
81,蜀腾川(新世界城店),南京西路2-68号新世界城L9层(人民广场地铁站7号口旁),121.473875,31.234737,餐饮服务
82,问BAR(新金桥广场店),西藏中路585号新金桥广场F1层,121.47228,31.236876,体育休闲服务
83,Mr.JUDY洗个头发(恒基名人店),南京东路300号恒基名人购物中心B2层,121.483938,31.237502,生活服务
84,华隆大厦人才中心,南苏州路333号华隆大厦(南京东路地铁站6号口步行410米),121.483984,31.241756,生活服务
85,老上海馄饨铺(无锡小区店),宁波路与五福弄交叉口西北80米,121.4805,31.239028,餐饮服务
86,蘭派·别墅派对轰趴馆(Downtown人民广场店),西藏中路525号(人民广场地铁站19号口步行230米),121.473546,31.236129,体育休闲服务
87,蚂蚁民宿(山西南路分店),山西南路外滩街道上海物资大厦,121.481319,31.239521,住宿服务
88,南京东路街道牛庄居民区人民调解委员会,贵州路与牛庄路交叉口西北40米,121.475523,31.237438,政府机构及社会团体
89,上海翊雍商务咨询有限公司,南京东300号恒基名人中心20楼2001,121.484026,31.237889,公司企业
90,兴业银行(上海黄浦支行),天津路200号1层(南京东路地铁站5号口步行150米),121.483323,31.238076,金融保险服务
91,明牌珠宝(新世界城店),南京西路2-68号新世界城1层,121.473024,31.234981,购物服务
92,NOWWA 挪瓦咖啡 (赛格电子市场店),浙江中路598号上海科技京城G区1层NOWWA咖啡,121.477695,31.239121,餐饮服务
93,7分甜(上海黄浦恒基名人店),南京东路300号恒基名人购物中心B108号铺位,121.483873,31.237628,餐饮服务
94,遇见·陶艺(第一百货店),南京东路800号C馆6楼,121.474817,31.235807,体育休闲服务
95,厦门路-路侧停车位,厦门路与南苏州路交叉口西40米,121.477974,31.240199,交通设施服务
96,黄浦区外滩街道退役军人服务站,河南中路568号(南京东路地铁站6号口步行120米),121.484156,31.240088,政府机构及社会团体
97,天津路448弄,宁波路与顾家弄交叉口南40米,121.478131,31.236851,商务住宅
98,温州路100弄小区,温州路100弄(新闸路地铁站6号口步行60米),121.469823,31.237898,商务住宅
99,d.VII(新世界城店),南京西路2-68号新世界城L3层,121.473321,31.235367,购物服务
100,上海陆柒捌探案馆(港陆黄浦中心店),六合路与牛庄路交叉口东南40米,121.474998,31.236642,餐饮服务
101,中国移动授权店,天津路249号(南京东路地铁站1号口步行240米),121.48157,31.237545,生活服务
102,上海恺朋广告有限公司,西藏中路525号雅居乐国际广场F3,121.472885,31.236116,公司企业
103,宁波路363弄,宁波路363弄1-3号(南京东路地铁站1号口步行410米),121.480417,31.238195,商务住宅
104,宁波路473弄,宁波路473弄1-9号,121.478517,31.237166,商务住宅
105,北京东路800号,北京东路与贵州路交叉口西40米,121.474978,31.238269,商务住宅
106,厦门路115-139号,厦门路115号、厦门路129号、厦门路139号,121.476215,31.239582,地名地址信息
107,江西中路368号-372号,江西中路368号、江西中路372号,121.485971,31.239881,商务住宅
108,山北小区395号,河南中路575弄1-11号,121.482508,31.240014,地名地址信息
109,复星保德信公司,天津路155号1303室(名义室号为1503室)、1306室(名义室号为1506室),121.483921,31.238113,金融保险服务
110,猛犸兄弟东北烤冷面(南京东路店),广西北路495号,121.47636,31.237305,餐饮服务
111,新世界城-新世界城篮球馆(新世界城店),南京西路2新世界城L5层(人民广场地铁站7号口步行60米),121.473665,31.234762,体育休闲服务
112,百空间BAIwork,天津路66号(南京东路地铁站6号口步行100米),121.484901,31.238881,商务住宅
113,上海工业陶瓷机电有限公司,福建中路438号(南京东路地铁站1号口步行470米),121.479745,31.237629,购物服务
114,阿歌列(上海)贸易有限公司,六合路98号港陆黄浦中心,121.474986,31.236626,公司企业
115,新世界天宇攀登(新世界城),南京西路2-68号新世界城L3层(人民广场地铁站7号口旁),121.47372,31.234932,体育休闲服务
116,安科利电气,牛庄路牛庄路641弄,121.477425,31.23769,公司企业
117,重庆鸡公煲,南京东路340号上海华联商厦6楼,121.482349,31.237114,餐饮服务
118,华尔卡中心,北京东路与顾家弄交叉口西北60米,121.477106,31.239026,商务住宅
119,沪酥酥(弘源商务楼店),山东北路14号弘源商务楼F1层,121.482834,31.2391,餐饮服务
120,OAK& BERRY酒吧,宁波路232号-108(南京东路地铁站6号口步行190米),121.482731,31.239101,餐饮服务
121,黄浦区河南消防救援站,五福弄南京路步行街,121.481077,31.237351,政府机构及社会团体
122,6号里美食吧,南京东路772号步行街,121.475741,31.235267,餐饮服务
123,中国福利体育彩票(江西中路店),滇池小区西南门旁(南京东路地铁站6号口步行220米),121.48583,31.240161,生活服务
124,山东北路-路侧停车位,山东北路弘源商务楼(南京东路地铁站6号口步行190米),121.482661,31.239088,交通设施服务
125,trova,香港路117号1层101室,121.48567,31.242472,餐饮服务
126,坤邦机电设备,南苏州路与山东北路交叉口东北60米,121.482517,31.240923,购物服务
127,橘子脱口秀俱乐部,南京东路830号第一百货A馆7楼-8楼,121.474952,31.235037,体育休闲服务
128,DOLA皮肤管理中心(新世界城店),南京西路2新世界城L3层(人民广场地铁站7号口步行60米),121.47379,31.235167,生活服务
129,上海Damon8公寓(4号店),北京东路431弄5号松柏公寓北楼松柏公寓-北楼,121.482156,31.239738,住宿服务
130,小克嘞.乡瓦蚝情(南京路步行街店),天津路286号(南京东路地铁站1号口步行320米),121.480675,31.237403,餐饮服务
131,外滩·融享汇,南苏州路429号(南京东路地铁站6号口步行320米),121.482777,31.241084,商务住宅
132,TP TEA(第一百货商业中心店),南京东路800号第一百货商业中心B1层,121.474454,31.235779,餐饮服务
133,广府手工茶点(新世界城店),南京西路2新世界城L7层(人民广场地铁站7号口步行60米),121.473808,31.234796,餐饮服务
134,衣卫士干洗洗衣洗鞋(黄浦区三店),宁波路与五福弄交叉口西40米,121.480423,31.23843,生活服务
135,Longlati Foundation,香港路117号303,121.48558,31.242337,公司企业
136,中宇联云计算服务(上海)有限公司,六合路58号新一百大厦18D-G,121.475348,31.236036,公司企业
137,上海南康科技有限公司,房地大厦(新闸路地铁站6号口步行340米),121.471428,31.236373,公司企业
138,旺池川萃(新世界城店),南京西路2-68号新世界城8楼C03区,121.473642,31.235137,餐饮服务
139,城市测量师行-上海城策行建筑规划设计咨询有限公司,西藏中路585号新金桥广场F11层,121.473127,31.237116,公司企业
140,华东师范大学开放教育学院宁波路学习中心,天津路158号2楼(南京东路地铁站5号口步行90米),121.483313,31.238348,科教文化服务
141,上海铭赫文化传播有限公司,云南北路59号六合大厦(人民广场地铁站19号口步行430米),121.474878,31.237287,科教文化服务
142,上海承泰铆钉不锈钢标准件,南苏州路与山西南路交叉口东40米,121.481401,31.240174,购物服务
143,陆金华海参馆,宁波路与山东北路交叉口东北40米,121.483035,31.239142,餐饮服务
144,上海艾迪逊酒店大堂,南京东路199号上海艾迪逊酒店,121.485982,31.237746,住宿服务
145,微建设计,香港路117号402室,121.485567,31.242351,公司企业
146,上海煜域管道清洗公司黄浦区工程部,福建中路495号,121.478967,31.238431,公司企业
147,香酥鸡蛋灌饼(广西北路店),广西北路495号,121.476386,31.237305,餐饮服务
148,木蔬森林·轻食沙拉(永亨大楼店),宁波路266号(南京东路地铁站5号口步行290米),121.481972,31.23893,餐饮服务
149,河南路桥,黄浦区,121.483007,31.241929,地名地址信息
150,第一百货商业中心-女洗手间,南京东路800-830号(近西藏中路)第一百货商业中心F2,121.475116,31.23547,公共设施
151,茶百道(星荟中心店),天潼路328号地下二层LG206、LG212、LG213、LG215-1室,121.48392,31.239317,餐饮服务
152,上海匠心玉文化传承中心,西藏中路728号美欣大厦F1层,121.47275,31.23979,科教文化服务
153,七记烧烤(宁波路店),宁波路240号(南京东路地铁站5号口步行250米),121.48242,31.23901,餐饮服务
154,老上海小吃,香港路123号(南京东路地铁站6号口步行500米),121.485204,31.242315,餐饮服务
155,秘酱一碗鸡,牛庄路775号(人民广场地铁站19号口步行420米),121.475347,31.237116,餐饮服务
156,CC.潮汕猪肚鸡汤饭(三和里店),江西中路430号(南京东路地铁站6号口步行340米),121.485359,31.241274,餐饮服务
157,麻辣香锅(新世界大丸百货店),南京东路228号新世界大丸百货B1层,121.483913,31.238056,餐饮服务
158,怪兽不厌食无糖面包甜点(人民广场店),贵州路126号欣辰烟酒商店,121.476083,31.236226,餐饮服务
159,蜀湘缘川菜,福建中路423号(南京东路地铁站1号口步行430米),121.479661,31.237321,餐饮服务
160,阿金大包·本地包子(第一百货商业中心A馆店),南京东路800号第一百货中心B馆B1,121.474703,31.235815,餐饮服务
161,民间粮仓重庆菜(东方商厦南东店),南京东路800号东方商厦F8,121.474782,31.235124,餐饮服务
162,WAGONS光速超跑(人民广场店),北京西路23号-27新金桥广场,121.472868,31.237226,汽车服务
163,牛New寿喜烧(人民广场店),南京东路步行街第一百货商业中心B馆6楼,121.474619,31.236051,餐饮服务
164,恰里健身俱乐部(永新广场店),南京西路128号永新广场F18层,121.472136,31.234093,体育休闲服务
165,月湖萃·海参馆,宁波路222号月湖萃·海参面,121.483032,31.239144,餐饮服务
166,沪华酒行,中博商务北门东北200米(南京东路地铁站1号口步行460米),121.479281,31.236968,购物服务
167,佳音小馆快餐菜饭(三和里店),江西中路430号(南京东路地铁站6号口步行360米),121.485363,31.241284,餐饮服务
168,宣城食品,南京路步行街与贵州路交叉口西60米,121.475957,31.235162,餐饮服务
169,荣耀手机售后维修中心(新世界城店),南京西路2-68号新世界城1F内,121.473768,31.235632,生活服务
170,上海斯良机电有限公司,六合路98号港陆黄浦中心,121.475115,31.236547,公司企业
171,努果咖啡(人民广场店),贵州路179号(人民广场地铁站19号口步行490米),121.475838,31.237063,餐饮服务
172,遇见川芙蓉小酒馆(人广店),贵州路104号(近南京东路),121.476329,31.235969,餐饮服务
173,恒天财富,天津路180号应氏大厦F12层,121.482569,31.238233,金融保险服务
174,中泰信托有限责任公司,北京东路668号科技京城西楼32层,121.477129,31.239029,金融保险服务
175,上海原子能工业有限公司,南苏州路333号华隆大厦F16层,121.484017,31.241899,公司企业
176,迅销企业管理有限公司,南京东路300号恒基名人商厦17楼,121.484034,31.237886,公司企业
177,宝格丽宴会厅,河南北路33号上海总商会2楼,121.48236,31.242669,餐饮服务
178,上海大世界传艺中心,云南北路59号六合大厦F11层,121.474806,31.237166,生活服务
179,海文国际it培训,天津路180号应氏大厦F16层,121.482661,31.238246,科教文化服务
180,第一秒电商公司,西藏中路525号雅居乐国际广场F4层,121.473092,31.236161,购物服务
181,上海广隆置业发展有限公司,北京东路378号景云大楼F6层,121.482851,31.240378,公司企业
182,谙科半导体有限公司,北京东路66号科技京城东楼28层B,121.478441,31.239302,公司企业
183,上海城科信息技术有限公司,西藏中路585号新金桥广场F15层,121.472771,31.236933,公司企业
184,上海外滩璞砚酒店地下停车场(出入口),南苏州路与山东北路交叉口东20米,121.482265,31.240668,交通设施服务
185,上海外滩璞砚酒店地下停车场,南苏州路与山东北路交叉口东40米,121.482286,31.240565,交通设施服务
186,北慕南乔,北京东路398号璞砚酒店18楼,121.482269,31.240438,餐饮服务
187,天津路-道路停车位,天津路与龙泉园路交叉口东40米,121.47902,31.236845,交通设施服务
188,江西中路-道路停车位,江西中路与香港路交叉口南60米,121.485099,31.24172,交通设施服务
189,凤阳路停车场,凤阳路永新广场(人民广场地铁站8号口步行280米),121.471766,31.234265,交通设施服务
190,六合路-道路停车位,六合路泛太平洋国际大厦(人民广场地铁站19号口步行390米),121.474489,31.237215,交通设施服务
191,弄堂到底物业,江西中路372弄(南京东路地铁站6号口步行230米),121.48595,31.240061,公司企业
192,汤圆混沌店,广西北路436号(人民广场地铁站19号口步行430米),121.476772,31.236339,餐饮服务
193,中国人寿财产保险股份有限公司上海市黄浦支公司,北京东路398号3层(南京东路地铁站6号口步行340米),121.482294,31.24037,金融保险服务
194,悦顿电子烟,天津路321号(南京东路地铁站1号口步行380米),121.480233,31.237065,购物服务
195,南京东路街道助餐点(人安里店),牯岭路139号(新闸路地铁站6号口步行340米),121.471261,31.235996,餐饮服务
196,上海速达管道疏通服务有限公司,温州路30号(新闸路地铁站6号口步行170米),121.470387,31.236995,公司企业
197,筋斗云科技,南苏州路381号4楼(南京东路地铁站6号口步行310米),121.483525,31.241703,公司企业
198,KiraKira二次元JK桌游电玩,六合路98号港陆黄浦中心1栋,121.475016,31.236653,体育休闲服务
199,六宫针灸丰胸减肥视力康复(贵州路店),云南北路59号1012室(六合大厦),121.474807,31.237218,生活服务
200,NATIONAL GEOGRAPHIC(华联商厦南京东路店),南京东路340号华联商厦(南京东路店)F1,121.483305,31.237154,购物服务
201,PITERA DISCOVERY(新世界城店),南京西路2新世界城L1层(人民广场地铁站7号口步行60米),121.473663,31.234938,餐饮服务
202,驴肉火烧·疙瘩汤·焖面(南京东路店),牛庄路713号,121.476604,31.23743,餐饮服务
203,瑞思迈呼吸机官方自营旗舰店,浙江中路398号-400号春申江大厦510室,121.478097,31.236265,医疗保健服务
204,XCOT明天,南京东路800号6层03-06309,121.475121,31.235777,科教文化服务
205,CASA FERRARI(上海苏河湾万象天地店),福建北路100号上海苏河湾万象天地F1层,121.48026,31.241704,购物服务
206,全季酒店上海人民广场店立体停车点,全季酒店(人民广场地铁站19号口步行330米),121.474585,31.236393,交通设施服务
207,全季酒店上海人民广场店立体停车点(出入口),全季酒店上海人民广场店立体停车点,121.47458,31.236331,交通设施服务
208,江都城经典酒店,山西南路与天津路交叉口东南20米,121.482146,31.237683,住宿服务
209,上海市规划和国土资源管理局行政服务中心,北京西路房地大厦(新闸路地铁站6号口步行360米),121.471761,31.236599,政府机构及社会团体
210,安利(银河公寓店),山东北路83号银河公寓F3层,121.481989,31.240365,购物服务
211,特别红剧场,国庆路与西藏北路辅路交叉口西南60米,121.471417,31.240265,体育休闲服务
212,贵州遵义羊肉粉(人民广场店),贵州路138号,121.476217,31.236582,餐饮服务
213,子龙炒饭(浙江中路店),浙江中路477号,121.4772,31.23761,餐饮服务
214,timhortons(永新广场店),南京西路128号永新广场B1层,121.47233,31.234005,购物服务
215,无锡路社区,黄浦区,121.48062,31.239017,地名地址信息
216,KiraKira美少女主题乐园,北京东路368号(南京东路地铁站6口步行230米),121.483315,31.240471,体育休闲服务
217,上海市第一百货商店-大上海电影院售票处,南京东路830号上海市第一百货商店F1,121.474393,31.236036,生活服务
218,海斐五金(满春坊店),天津路满春坊(南京东路地铁站1号口步行330米),121.480603,31.237395,购物服务
219,上海良品铺子礼品团购公司,山西南路350号上海物资大厦F17层,121.481795,31.239613,公司企业
220,南京东路地段医院,北京西路与长沙路交叉口西约60米,121.471307,31.236818,医疗保健服务
221,大肆撸串(人民广场店),"西藏中路500号1楼(全家旁,思源大厦)",121.474381,31.236599,餐饮服务
222,禛容电子科技(上海)有限公司,北京东路668号赛格电子市场C326室,121.478255,31.23912,公司企业
223,老朴家铁锅炖(南京东路店),天津路148号(南京东路地铁站5号口步行100米),121.483411,31.23832,餐饮服务
224,人社综合服务窗口(黄浦区外滩街道社区事务受理服务中心),河南中路568号(南京东路地铁站6号口步行120米),121.484129,31.240054,政府机构及社会团体
225,雅居乐国际广场地下停车场(出口),西藏中路525号雅居乐国际广场B1,121.473066,31.236642,交通设施服务
226,雅居乐国际广场地下停车场,西藏中路525号雅居乐国际广场B1,121.472695,31.236355,交通设施服务
227,东银大厦停车场,牛庄路658号东银大厦,121.477581,31.238531,交通设施服务
228,东银大厦内部地下停车场,牛庄路658号东银大厦,121.477428,31.237791,交通设施服务
229,东银大厦内部地下停车场(入口),牛庄路与浙江中路交叉口东40米,121.477432,31.237787,交通设施服务
230,联畅生鲜超市(永亨大楼店),宁波路266号永亨大楼F1层,121.482099,31.238887,购物服务
231,上海房建公寓段天津路宿舍,天津路423号,121.478384,31.236504,商务住宅
232,甘露茶院(华隆大厦店),南苏州路333号华隆大厦F1层,121.48396,31.242117,餐饮服务
233,OK猩猩女性训练馆,山西北路98号(天潼路地铁站5口步行300米),121.480468,31.242469,体育休闲服务
234,纵恩ZONE篮球训练营(新世界城店),南京西路2新世界城L6层(人民广场地铁站7号口步行60米),121.473634,31.235132,体育休闲服务
235,公共厕所,福建中路上海科技京城,121.478671,31.239709,公共设施
236,河南财经政法大学上海校友会,江西中路421号(南京东路地铁站6号口步行340米),121.485096,31.241284,政府机构及社会团体
237,Lulutilu露露提鹿桌游剧本轰趴俱乐部(第一百货店),南京东路830号第一百货商业中心A馆F8层,121.474813,31.235408,体育休闲服务
238,思源商厦立体停车场(出入口),西藏中路500号思源商厦立体停车场,121.474663,31.236504,交通设施服务
239,思源商厦立体停车场,西藏中路500号(人民广场地铁站19号口步行330米),121.474545,31.236462,交通设施服务
240,南京东路街道第三网格工作站,厦门路144号,121.475631,31.239649,政府机构及社会团体
241,燕轩图文快印,牯岭路167号(近黄河路)(新闸路地铁站6号口步行300米),121.470724,31.235813,生活服务
242,110接处警停车场,上海市黄浦区山西南路161号,121.482401,31.236965,交通设施服务
243,苗苗俱乐部,南京西路150号苗苗俱乐部,121.47179,31.23387,体育休闲服务
244,宁波路幼儿园(分部),宁波路120弄8号(河南中路宁波路),121.484675,31.23968,科教文化服务
245,黄浦区第四征收事务所,南苏州路935号,121.474201,31.24081,政府机构及社会团体
246,春申江大厦地下停车场,浙江中路400号春申江大厦,121.478012,31.23612,交通设施服务
247,春申江大厦地下停车场(入口),浙江中路与香粉弄交叉口北20米,121.478039,31.236117,交通设施服务
248,春申江大厦地下停车场(出口),浙江中路400号春申江大厦停车库内,121.478243,31.236484,交通设施服务
249,第一百货商业中心-男洗手间,南京东路800-830号(近西藏中路)第一百货商业中心F5,121.475011,31.235452,公共设施
250,御饼家·百年胡椒饼(南京东路总店),天津路159号,121.48322,31.238072,餐饮服务
251,云腾过桥米线(南京路步行街店),宁波路上海南新雅皇冠假日酒店西北侧约190米,121.475897,31.236434,餐饮服务
252,航华二村二街坊43号楼,新世界大丸百货上海市黄浦区南京东路228号F4,121.484539,31.237332,地名地址信息
253,步步高(新世界城店),南京西路2-88号新世界城F8,121.473353,31.23528,购物服务
254,中国福利彩票(滇池小区店),江西中路374号滇池小区(南京东路地铁站6号口步行230米),121.485799,31.240199,生活服务
255,大骨牛肉汤,贵州路121号(人民广场地铁站19号口步行400米),121.4761,31.23627,餐饮服务
256,ESQ(新世界城店),南京西路2-68号新世界城L2层(人民广场地铁站7号口旁),121.473643,31.235084,餐饮服务
257,上海市水利管理事务中心,南苏州路333号(南京东路地铁站6号口步行410米),121.483965,31.241959,政府机构及社会团体
258,上海市排水管理事务中心,厦门路180号,121.47484,31.239509,政府机构及社会团体
259,老娘舅(上海西藏中路思源商厦店),淮海中路417号负一层20号铺老娘舅,121.474176,31.236357,餐饮服务
260,母婴室(恒基名人购物中心),南京东路300号恒基名人购物中心L3层,121.484283,31.238179,公共设施
261,东银大厦停车场(入口),东银大厦停车场,121.477472,31.237857,交通设施服务
262,东银大厦停车场(出入口),东银大厦停车场,121.477656,31.238572,交通设施服务
263,宁波路社区,黄浦区,121.484612,31.240127,地名地址信息
264,THE PEOPLE 餐吧(大悦城四行店),光复路9号四行仓库沿街一楼(曲阜路地铁站3号口步行290米),121.471179,31.240159,餐饮服务
265,科技京城东楼国信证卷交易大厅,北京东路668号上海科技京城东楼,121.478487,31.239297,政府机构及社会团体
266,上海新能源中心,北京东路668号北京东路东楼F5层,121.478439,31.239335,公司企业
267,上海市第一百货商店南京东路店地下停车场(出口),六合路与宁波路交叉口东南20米,121.474898,31.236249,交通设施服务
268,上海市第一百货商店南京东路店地下停车场(入口),南京东路830号第一百货商业中心B2,121.475335,31.236329,交通设施服务
269,上海市第一百货商店南京东路店地下停车场,宁波路与云南北路交叉口南20米,121.475271,31.236202,交通设施服务
270,新一百大厦地下停车场,宁波路与云南北路交叉口南20米,121.475335,31.236236,交通设施服务
271,新一百大厦地下停车场(入口),宁波路与云南北路交叉口南20米,121.47533,31.236213,交通设施服务
272,新一百大厦地下停车场(出口),新一百大厦地下停车场(人民广场地铁站19号口步行320米),121.474918,31.236186,交通设施服务
273,一品名仕包子(浙江中路店),宁波路540号,121.477313,31.236981,餐饮服务
274,仨姊妹跷脚牛肉(南京路步行街店),南京东路558号南京路步行街,121.481732,31.23851,餐饮服务
275,安基商厦地下停车场(出入口),广西北路与芝罘路交叉口东北20米,121.476303,31.238005,交通设施服务
276,安基商厦地下停车场,广西北路528号,121.476199,31.238223,交通设施服务
277,百空间香港路,香港路117号,121.48557,31.242348,科教文化服务
278,华客生鲜集市,香港路123号,121.485308,31.242378,购物服务
279,复游雪·城市滑雪(第一百货店),第一百货商业中心C馆6层,121.475289,31.235599,体育休闲服务
280,ORCHEL欧榭丽(新世界城店),南京西路2-68号上海新世界城2楼2A-14铺ORCHEL欧榭丽,121.473534,31.235232,购物服务
281,黄浦环卫大楼立体停车场(出入口),南苏州路与浙江中路交叉口东南80米,121.477224,31.240746,交通设施服务
282,黄浦环卫大楼立体停车场,南苏州路与浙江中路交叉口东南80米,121.47718,31.240593,交通设施服务
283,vivo(新世界城店),南京西路2-68号(新世界城七楼),121.473622,31.235428,购物服务
284,中财中心地下停车场,牛庄路与浙江中路交叉口东40米,121.477427,31.237801,交通设施服务
285,中财中心地下停车场(出入口),中财中心地下停车场,121.477472,31.237856,交通设施服务
286,华致名酒库(黄浦天津路店),天津路185号新华国旅(天津路店),121.482832,31.237971,购物服务
287,阡陌学车(人民广场店),六合路58号新一百大厦F14层,121.475176,31.236079,科教文化服务
288,上海花小爷民宿,北京东路431弄松柏公寓5号楼,121.481903,31.239881,住宿服务
289,景莱酒店·轻奢(上海外滩南京东路步行街店),南京东路740号(贵州路67号交接口),121.476377,31.235242,住宿服务
290,新闽记,南京西路88号3楼(人民广场地铁站7号口步行80米),121.472987,31.234539,餐饮服务
291,美华大楼停车场(出入口),厦门路与西藏中路交叉口东40米,121.473437,31.238867,交通设施服务
292,美华大楼停车场,厦门路与西藏中路交叉口东60米,121.473746,31.238954,交通设施服务
293,增爱公益基金会,北京东路668号东楼13层D座,121.478439,31.239289,政府机构及社会团体
294,上海东盛餐饮管理有限公司(上海科技京城西楼店),北京东路668号上海科技京城西楼,121.477149,31.23904,餐饮服务
295,港仔点点心,天津路与五福弄交叉口东南60米,121.481399,31.236989,餐饮服务
296,上海邑瑞智能科技有限公司,山东北路57号(南京东路地铁站6号口步行280米),121.482249,31.239784,公司企业
297,原始叔叔烧烤,天津路258号(南京东路地铁站1号口步行220米),121.481704,31.237749,餐饮服务
298,杨姐美甲美睫半永久养生管理(施华蔻人民广场店),牯岭路157号(新闸路地铁站6号口步行300米),121.4709,31.235889,生活服务
299,云快充汽车充电站(新世界城),新世界城地下停车场(人民广场地铁站7号口步行50米),121.473702,31.234717,汽车服务
300,人民咖啡馆,光复路9号(曲阜路地铁站2号口步行280米),121.471097,31.240149,餐饮服务
301,迷城密室逃脱(恒基名人购物中心店),南京东路300号恒基名人购物中心B1层,121.48409,31.23787,体育休闲服务
302,优炙和牛烧肉(新世界城店),南京西路2号新世界城9楼(人民广场地铁站19号口步行70米),121.473945,31.235051,餐饮服务
303,REONE(新世界城店),南京西路2-68号新世界城F7(人民广场地铁站7号口旁),121.473413,31.235054,购物服务
304,Vitamix&BRITA&AirProce(新世界城店),南京西路2-68号新世界城L7层,121.473532,31.235394,购物服务
305,魅所(新世界城店),南京西路2-68号新世界城L2层,121.473047,31.234906,购物服务
306,PSALTET(新世界城店),南京西路2-68号新世界城L2层,121.473716,31.235563,购物服务
307,比音勒芬(新世界城店),南京西路2-68号新世界城F5,121.473576,31.235512,购物服务
308,陶陶居(上海新世界店),南京西路2-68号(人民广场地铁站19号口步行60米),121.474041,31.234935,餐饮服务
309,斯比特花园西餐厅(新世界城店),南京西路2-68号新世界9F-01,121.47384,31.235591,餐饮服务
310,无障碍洗手间(新世界城),南京西路2-68号新世界城L11层,121.473212,31.235065,公共设施
311,望月楼(新世界城店),南京东路街道南京西路2-68号新世界城B2层,121.473622,31.234251,餐饮服务
312,西树泡芙(新世界城店),南京西路2-68号新世界城B1层-15,121.473496,31.234691,餐饮服务
313,煎子生(新世界城店),南京西路2-68号新世界商场B1F-07,121.473534,31.234972,餐饮服务
314,1点点(新世界城店),南京西路2-68号新世界城B2楼(人民广场地铁站7号口旁),121.473543,31.234288,餐饮服务
315,Teenie Weenie Kids(新世界城店),南京西路2-68号新世界城F8(人民广场地铁站7号口旁),121.473253,31.235005,购物服务
316,Warrior回力(新世界城店),麦当劳(新世界店)南京西路2-68号新世界商场6楼,121.473357,31.235297,购物服务
317,Finlayson(新世界城店),南京西路2-68号新世界城F7(人民广场地铁站7号口旁),121.473355,31.23502,购物服务
318,无障碍洗手间(新世界城),西藏中路399号新世界城L9层,121.47316,31.235105,公共设施
319,米皇(新世界城店),南京西路2-68号新世界城F7,121.473226,31.235225,购物服务
320,无障碍洗手间(新世界城),南京西路2-68号新世界城L7层,121.473151,31.235104,公共设施
321,金铂银奢侈品回收,宁波路219号(南京东路地铁站6号口步行150米),121.483045,31.239015,生活服务
322,等侬吃面,宁波路208号(南京东路地铁站6号口步行140米),121.483205,31.239173,餐饮服务
323,新金桥广场停车场,南京东路街道西藏中路585号新金桥广场,121.472558,31.236688,交通设施服务
324,新金桥广场地面停车场(出入口),新金桥广场停车场(新闸路地铁站6号口步行400米),121.472385,31.236992,交通设施服务
325,新金桥广场地下停车场,南京东路街道西藏中路585号新金桥广场,121.473003,31.236944,交通设施服务
326,新金桥广场地下停车场(入口),西藏中路525号雅居乐国际广场B1,121.473155,31.236876,交通设施服务
327,新金桥广场地面停车场(出口),新金桥广场停车场(人民广场地铁站7号口步行440米),121.472548,31.236768,交通设施服务
328,睢艾酒店,宁波路180号(南京东路地铁站6号口步行100米),121.483592,31.23921,住宿服务
329,顶针,上海科技京城东南门旁,121.478428,31.238849,餐饮服务
330,黄浦区135街坊旧城区改建项目拆房工程办公室,厦门路与南苏州路交叉口西60米,121.477802,31.240187,政府机构及社会团体
331,恒基名人购物中心地下停车场(出入口),南京东路300号恒基名人购物中心B2,121.484115,31.238273,交通设施服务
332,烟草专卖(南京路步行街店),福建中路盆汤弄108弄(南京东路地铁站4号口步行370米),121.480083,31.236715,购物服务
333,应氏大厦地下停车场(出口),天津路与山西南路交叉口东北40米,121.482282,31.238026,交通设施服务
334,永新广场地下停车场,南京西路128号永新广场(人民广场地铁站8号口步行290米),121.471954,31.234243,交通设施服务
335,永新广场地下停车场(出入口),永新广场地下停车场(人民广场地铁站8号口步行280米),121.471831,31.234254,交通设施服务
336,应氏大厦地下停车场,山东北路180号应氏大厦(南京东路地铁站5号口步行180米),121.482714,31.238461,交通设施服务
337,应氏大厦地下停车场(入口),天津路180号应氏大厦附近,121.482717,31.238515,交通设施服务
338,房地大厦停车场,牯岭路与白河路交叉口西北40米,121.471263,31.23649,交通设施服务
339,房地大厦机械停车场(出入口),西藏中路525号雅居乐国际广场B1,121.472029,31.236434,交通设施服务
340,房地大厦停车场(出口),牯岭路与白河路交叉口西40米,121.471178,31.236121,交通设施服务
341,房地大厦机械停车场,黄河路28号(人民广场地铁站7号口步行400米),121.471767,31.236467,交通设施服务
342,房地大厦停车场(出入口),牯岭路与白河路交叉口西北40米,121.471196,31.236455,交通设施服务
343,华隆大厦停车场,南苏州路333号华隆大厦(南京东路地铁站6号口步行440米),121.484203,31.241984,交通设施服务
344,华隆大厦机械停车场,南苏州路333号华隆大厦,121.484172,31.241623,交通设施服务
345,华隆大厦地下停车场,南苏州路333号华隆大厦(南京东路地铁站6号口步行460米),121.48422,31.241885,交通设施服务
346,上海物资大厦停车场,北京东路433号-471号,121.481705,31.239331,交通设施服务
347,上海物资大厦地下停车场,山西南路350号上海物资大厦,121.481857,31.23953,交通设施服务
348,上海鑫企汇企业发展有限公司,浙江中路398春申江大厦F14层,121.478163,31.236237,公司企业
349,奢侈品皮具护理(新世界城店),南京西路2-68号新世界城L3层,121.473945,31.235274,生活服务
350,LEGO(新世界城店),南京西路2-68号新世界城L8层,121.473326,31.235344,购物服务
351,FUSION(新世界城店),南京西路2-68号新世界城L6层,121.473344,31.235391,购物服务
352,TIME MAGIC(新世界城),南京西路2-68号新世界城L8层,121.473472,31.235454,科教文化服务
353,星巴克(新世界店),南京西路2-68号新世界城L3层,121.473616,31.235348,餐饮服务
354,ANUTICA(新世界城店),南京西路2-68号新世界城F5,121.47323,31.235226,购物服务
355,象屿集团大厦地下停车场,南苏州路999号象屿集团大厦,121.471634,31.239205,交通设施服务
356,象屿集团大厦停车场,南京东路街道南苏州路999号,121.471266,31.239145,交通设施服务
357,美欣大厦内部停车场(出入口),美欣大厦内部停车场(曲阜路地铁站2号口步行380米),121.473097,31.240191,交通设施服务
358,美欣大厦内部地下停车场(出入口),美欣大厦内部地下停车场(曲阜路地铁站2号口步行430米),121.473206,31.239738,交通设施服务
359,美欣大厦内部停车场,西藏中路728号美欣大厦(曲阜路地铁站2号口步行400米),121.473098,31.240028,交通设施服务
360,美欣大厦内部地下停车场,西藏中路728号美欣大厦(曲阜路地铁站2号口步行430米),121.47321,31.239751,交通设施服务
361,六合大厦停车场,云南北路59号六合大厦(人民广场地铁站19号口步行440米),121.474858,31.237402,交通设施服务
362,六合大厦机械停车库,芝罘路六合大厦(人民广场地铁站19号口步行460米),121.474779,31.237281,交通设施服务
363,六合大厦机械停车库(出入口),芝罘路与云南北路交叉口西20米,121.474751,31.237443,交通设施服务
364,六合大厦停车场(出入口),六合大厦停车场(人民广场地铁站19号口步行470米),121.474814,31.237456,交通设施服务
365,六合大厦停车场(出入口),六合大厦停车场(人民广场地铁站19号口步行420米),121.475014,31.237261,交通设施服务
366,上海科技京城西楼停车场(入口),浙江中路与厦门路交叉口东南80米,121.476883,31.239171,交通设施服务
367,上海科技京城西楼停车场,浙江中路588号,121.477278,31.238743,交通设施服务
368,上海科技京城西楼停车场(出入口),北京东路与顾家弄交叉口北20米,121.477603,31.238824,交通设施服务
369,北京东路,黄浦区,121.481498,31.239494,地名地址信息
370,耀朗吊车叉车出租,北京东路,121.474622,31.238149,汽车服务
371,港陆黄浦中心地下停车场(出入口),港陆黄浦中心地下停车场(人民广场地铁站19号口步行360米),121.475154,31.236748,交通设施服务
372,港陆黄浦中心停车场,六合路98号港陆黄浦中心,121.475024,31.236877,交通设施服务
373,港陆黄浦中心地下停车场,六合路98号港陆黄浦中心,121.475171,31.236703,交通设施服务
374,港陆黄浦中心停车场(出入口),港陆黄浦中心停车场(人民广场地铁站19号口步行360米),121.475154,31.236748,交通设施服务
375,提耳朵·麻辣大拌(上海旗舰店),南京东路324弄17-19号,121.483521,31.237689,餐饮服务
376,惊云面馆(新派酸汤手工面),宁波路222号底层A室(南京东路地铁站6号口步行150米),121.483081,31.239188,餐饮服务
377,日本辉尔康株式会社,浙江中路398号,121.478198,31.236107,公司企业
378,罗記手工红烧牛肉面,宁波路196号(南京东路地铁站6号口步行110米),121.483455,31.239231,餐饮服务
379,煎饼王(宁波路店),南京东路558号南京路步行街,121.482928,31.23912,餐饮服务
380,fandecie(新世界城店),南京西路2新世界城L4层(人民广场地铁站7号口步行60米),121.473473,31.235271,购物服务
381,BCA Gallery,香港路117号501,121.485644,31.242332,科教文化服务
382,上海新世界丽笙大酒店立体停车场,南京西路88号上海新世界丽笙大酒店,121.472511,31.234702,交通设施服务
383,上海新世界丽笙大酒店立体停车场(出入口),上海新世界丽笙大酒店立体停车场,121.472481,31.234684,交通设施服务
384,盆汤弄113号楼,南京东路558号,121.480244,31.236472,地名地址信息
385,名扬广告有限公司,西藏中路728号美欣大厦(曲阜路地铁站2号口步行380米),121.473011,31.239723,公司企业
386,上海外滩璞砚酒店-棋牌室,山东北路与北京东路交叉口北20米,121.482231,31.240363,体育休闲服务
387,快乐柠檬(安庆双井街店),广西北路与牛庄路交叉口南20米,121.476372,31.237254,餐饮服务
388,牛庄鲜切牛肉火锅,南京东路299号南京路步行街(西藏中路)1层,121.474359,31.235958,餐饮服务
389,李维斯(新世界城店),南京西路2新世界城L4层(人民广场地铁站7号口步行60米),121.473403,31.235176,购物服务
390,蟹坊间(新世界城店),南京西路2新世界城B1层(人民广场地铁站7号口步行60米),121.473542,31.234759,餐饮服务
391,易居房友,河南中路与北京东路交叉口南80米,121.483723,31.239781,生活服务
392,苏河湾中心-MT,山西北路99号(天潼路地铁站5号口步行330米),121.479955,31.242276,商务住宅
393,屹荣府(第一百货商业中心C馆店),南京东路800号第一百货c馆F9层,121.475435,31.235443,餐饮服务
394,上海茂威五金紧固件(银河公寓店),山东北路83号银河公寓F1层,121.481614,31.240294,购物服务
395,东北大饼(宁波路店),宁波路201号宁新小区(南京东路地铁站6号口步行90米),121.48371,31.239036,餐饮服务
396,上海力章实业有限公司,南苏州路507号(南京东路地铁站6号口步行410米),121.481784,31.240302,公司企业
397,南东城运街区工作站,厦门路尊德里,121.475631,31.239656,政府机构及社会团体
398,更梯加梯推进小组,天津路175号(南京东路地铁站1号口步行170米),121.482938,31.238042,政府机构及社会团体
399,鱼跃呼吸机制氧机官网自营旗舰店,浙江中路400号春申江大厦510室,121.478211,31.236164,医疗保健服务
400,上海人大人科技创新服务有限公司,六合路上海市第一百货商店(南京东路店),121.475164,31.235773,公司企业
401,牛丁国标车,福建中路485号(南京东路地铁站4号口步行490米),121.479359,31.23813,汽车服务
402,京东物流上海黄浦营业部,三元号青年公寓东南门旁,121.485192,31.242477,生活服务
403,洱清阁可视采耳,天津路293号(南京东路地铁站1号口步行320米),121.48065,31.237396,医疗保健服务
404,牡丹开放麦剧场,南京东路300号5楼(南京东路地铁站3号口旁),121.484064,31.237687,体育休闲服务
405,兔子洞侦探俱乐部,山西南路350号上海物资大厦707-708,121.481544,31.239504,体育休闲服务
406,中国东方航空南苏州路售票处(华隆大厦店),南苏州路与河南中路辅路交叉口东北60米,121.483879,31.242038,生活服务
407,上海茹赛贸易,银河公寓西北门旁(南京东路地铁站6号口步行420米),121.481585,31.240278,公司企业
408,液压气动阀门管件,银河公寓西北门旁(南京东路地铁站6号口步行440米),121.481454,31.240202,购物服务
409,渔间花开(新世界店),南京西路2-68号(南楼)8层8C01室,121.474046,31.234828,餐饮服务
410,白河路-道路停车位,白河路与凤阳路交叉口北40米,121.472021,31.235075,交通设施服务
411,陳香贵·蘭州牛肉面(上海恒基名人店),南京东路300号2003室恒基名人商业大厦B101单元,121.484107,31.237818,餐饮服务
412,新光剧场,宁波路586弄1号(人民广场地铁站北),121.476525,31.23678,体育休闲服务
413,大上海电影院,南京东路830号上海市第一百货商店,121.474213,31.235902,体育休闲服务
414,包小满·蟹粉汤包(人民广场店),贵州路85号(人民广场地铁站19号口步行310米),121.476303,31.235501,餐饮服务
415,大众面馆(上海物资大厦店),山西南路330号(南京东路地铁站1号口步行370米),121.481378,31.23934,餐饮服务
416,南苏州路南侧停车带,南苏州路与山东北路交叉口东北40米,121.482285,31.240795,交通设施服务
417,海王星辰(宁波路店),宁波路108-110号底层(南京东路地铁站6号口步行70米),121.484899,31.239477,医疗保健服务
418,大眼包子(宁波路店),上海市黄浦区河南中路521号,121.483915,31.239319,餐饮服务
419,牯岭路-道路停车位,牯岭路房地大厦(人民广场地铁站7号口步行420米),121.471851,31.236304,交通设施服务
420,出租车停车位,天津路与龙泉园路交叉口东北20米,121.47882,31.236796,交通设施服务
421,白河路-道路停车位,白河路与定兴路交叉口北20米,121.47183,31.235482,交通设施服务
422,艾森轻奢酒店(外滩南京东路店),宁波路51号(南京东路地铁站6号口步行150米),121.485869,31.239482,住宿服务
423,新文餐饮店(安基商厦店),广西北路528号安基商厦F1层,121.47655,31.238124,餐饮服务
424,超级泰·泰式麻辣烫(恒基名人店),南京东路300号恒基名人购物中心b115,121.483866,31.238007,餐饮服务
425,上海体育博物馆,南京西路150号上海体育大厦地上3层,121.471965,31.233853,科教文化服务
426,张记油条(宁波路店),宁波路225号-3室(南京东路地铁站6号口步行170米),121.482873,31.238957,餐饮服务
427,雙门洞(江西中路店),江西中路438号(南京东路地铁站6号口步行430米),121.485168,31.241831,餐饮服务
428,不止碗红·霸碗饭(南京东路店),牛庄路775号(人民广场地铁站19号口步行410米),121.475225,31.236962,餐饮服务
429,原麦三秋(贵州路店),贵州路137号(人民广场地铁站19号口步行420米),121.475965,31.236651,餐饮服务
430,麦鲜良制,宁波路225-2号(南京东路地铁站6号口步行170米),121.48289,31.238973,餐饮服务
431,贝斯特,南京东路300号恒基名人广场4楼,121.48409,31.23787,餐饮服务
432,宁波路-道路停车位,宁波路与河南中路交叉口东60米,121.484802,31.239379,交通设施服务
433,上海人民电器开关厂集团有限公司,牛庄路与云南北路交叉口东20米,121.475435,31.236924,公司企业
434,四川北路街道,静安区,121.47952,31.242,地名地址信息
435,川陕风味小吃(第一百货商业中心店),南京东路800号第一百货商业中心B1层,121.474776,31.235909,餐饮服务
436,怀旺便利店,牛庄路与福建中路交叉口西南20米,121.479419,31.237766,购物服务
437,四季花饰(南京路步行街店),南京东路558号南京路步行街,121.479282,31.236784,购物服务
438,X CLUB(新世界城店),凤阳路与长沙路交叉口东80米,121.473645,31.235142,体育休闲服务
439,上海久砾不锈钢管有限公司,云南北路59号六合大厦F8层,121.474901,31.237287,公司企业
440,上海响泰自动化设备有限公司(办事处),北京东路668号上海科技京城,121.478429,31.239352,公司企业
441,鑫龙河岸酒店(暂停营业),新闸路鸿福里,121.472951,31.238018,住宿服务
442,张师傅广东肠粉王(南京路步行街店),南京东路558号南京路步行街,121.482885,31.238971,餐饮服务
443,橙色回忆民宿(上海南京路步行街店),外滩街道北京东路368号(南京东路地铁站6号口步行280米),121.482964,31.24061,住宿服务
444,上海菁飞之家公寓(2号店),长新大楼(新闸路200号)(新闸路地铁站6号口步行50米),121.469847,31.238668,住宿服务
445,紧固件汽车动液压,福建中路无锡小区,121.479358,31.238536,汽车服务
446,阿萍纹绣美甲美睫,北京西路与温州路交叉口东南40米,121.470749,31.236051,生活服务
447,HomePlus上海公寓(天津路分店),天津路195弄30号宁新小区东风小区,121.48246,31.237471,住宿服务
448,雯雯的硬糖屋公寓(河南中路分店),河南中路北京里(南京东路地铁站6号口步行230米),121.484123,31.24104,住宿服务
449,飏洋公寓(山东北路分店),山东北路松柏公寓南楼(南京东路地铁站6号口步行230米),121.482329,31.239308,住宿服务
450,上海春申江创盈企业服务有限公司,浙江中路398春申江大厦F18层,121.4782,31.236075,公司企业
451,神龙建筑装潢材料部,四川中路613-615号,121.486098,31.242278,购物服务
452,上海永铮五金标准件有限公司,北京东路山北小区(南京东路地铁站6号口步行290米),121.482674,31.240304,公司企业
453,母婴室(第一食品),南京东路720号L2,121.476792,31.235433,公共设施
454,瑞幸咖啡(第一百货商业中心店),南京西路2新世界城F2层(人民广场地铁站19号口步行80米),121.47452,31.235583,餐饮服务
455,海王星辰(天津路店),天津路224号(山西南路240底层),121.482026,31.237927,医疗保健服务
456,老朴家铁锅炖(总店),天津路423-3号,121.47844,31.236534,餐饮服务
457,办公文具(福瑞小区店),温州路48号福瑞小区(新闸路地铁站6号口步行340米),121.471722,31.237031,购物服务
458,SieMatic西曼帝克上海旗舰店,北苏州路558号(天潼路地铁站5号口步行410米),121.48115,31.241181,购物服务
459,无障碍卫生间(新世界城)),上海市黄浦区西藏中路399号L11,121.473665,31.235224,公共设施
460,无障碍洗手间(宏伊广场),上海市黄浦区河南中路299号L6,121.484554,31.237741,公共设施
461,无障碍洗手间(上海新世界大丸百货),上海市黄浦区南京东路258号L5,121.485877,31.238627,公共设施
462,无障碍洗手间(上海新世纪大丸百货),南京东路258号L2,121.4859,31.238677,公共设施
463,无障碍洗手间(宏伊广场),上海市黄浦区河南中路299号L5,121.484569,31.237753,公共设施
464,无障碍洗手间(第一百货),南京东路830号B馆L3,121.474554,31.235903,公共设施
465,无障碍洗手间(新世界城),上海市黄浦区西藏中路399号L12,121.473805,31.235212,公共设施
466,无障碍洗手间(第一百货),南京东路830号B馆L2,121.474555,31.235871,公共设施
467,无障碍洗手间(上海新世界大丸百货),南京东路258号L1,121.485896,31.238654,公共设施
468,无障碍洗手间(新世界城),上海市黄浦区西藏中路399号L4,121.473659,31.235189,公共设施
469,无障碍洗手间(新世界百货),西藏中路399号L2,121.473425,31.234879,公共设施
470,无障碍洗手间(宏基广场),南京东路299号L6,121.484147,31.238137,公共设施
471,无障碍洗手间(恒基名人购物中心),南京东路300号L2,121.48418,31.237766,公共设施
472,无障碍洗手间(新世界城),上海市黄浦区西藏中路399号L8,121.473633,31.235299,公共设施
473,无障碍洗手间(上海新世纪大丸百货),上海市黄浦区南京东路258号L3,121.485635,31.238481,公共设施
474,无障碍洗手间(上海市第一百货商店L1层),西藏中路525号L1层,121.473297,31.235844,公共设施
475,无障碍公共厕所(上海雅居乐万豪侯爵酒店),西藏中路525号,121.473053,31.236156,公共设施
476,无障碍洗手间(新世界百货L3层),西藏中路399号L3层,121.473397,31.235086,公共设施
477,母婴室(新世界大丸百货),南京东路258号L6,121.485267,31.238229,公共设施
478,无障碍洗手间(上海新世纪大丸百货),南京东路258号L6,121.485703,31.238479,公共设施
479,无障碍洗手间(第一百货),上海市黄浦区南京东路830号B馆L8,121.474633,31.235534,公共设施
480,无障碍洗手间(丽笙大酒店),南京西路88号L1,121.473008,31.234569,公共设施
481,无障碍洗手间(上海新世纪大丸百货),南京东路258号L4,121.486067,31.238409,公共设施
482,母婴室(第一百货),南京东路830号B馆L4,121.474543,31.235864,公共设施
483,无障碍洗手间(上海新世纪大丸百货),南京东路258号L2,121.485924,31.238626,公共设施
484,无障碍洗手间(第一百货),上海市黄浦区南京东路830号B馆L8,121.47497,31.235435,公共设施
485,无障碍洗手间(新世纪大丸百货),南京东路258号B2,121.486007,31.238439,公共设施
486,母婴室(世贸广场),南京东路829号L2,121.47525,31.235274,公共设施
487,母婴室(新世界城),凤阳路399号L8,121.473264,31.235092,公共设施
488,无障碍洗手间(第一百货),上海市黄浦区南京东路800号C馆L6,121.475212,31.235872,公共设施
489,无障碍洗手间(第一百货),上海市黄浦区南京东路830号B馆L6,121.474619,31.236011,公共设施
490,无障碍洗手间(第一百货),上海市黄浦区南京东路830号B馆L5,121.474606,31.235941,公共设施
491,西子面馆,贵州路与牛庄路交叉口南20米,121.475897,31.23702,餐饮服务
492,木意牛府港式火锅(华侨城苏河湾店),北苏州路470-1016号华侨城苏河湾,121.482673,31.24219,餐饮服务
493,和府捞面(新世界城店),南京西路2-68号新世界城商场编号B1F9商铺,121.47329,31.234971,餐饮服务
494,MY WANTS时尚集团总部,香港路117号5层,121.485585,31.242424,公司企业
495,上海惠为时装有限公司,香港路130号3楼,121.485338,31.242498,公司企业
496,贵州路居民委员会,厦门路与贵州路交叉口西南80米,121.474475,31.238776,政府机构及社会团体
497,厦门路居民委员会,浙江中路与南苏州路交叉口西南80米,121.476058,31.240428,政府机构及社会团体
498,云南中路居民委员会,宁波路与云南北路交叉口东南20米,121.475488,31.236285,政府机构及社会团体
499,龙泉园路居民委员会,浙江中路与宁波路交叉口北20米,121.477456,31.237054,政府机构及社会团体
500,吉华超市(滇池小区店),江西中路374号滇池小区(南京东路地铁站6号口步行230米),121.485774,31.240216,购物服务
501,城家公寓(人民广场南京东路步行街店),宁波路232号,121.482701,31.239166,住宿服务
502,逸刻EGO(雅居乐国际广场店),西藏中路与凤阳路交叉口西南20米,121.473588,31.236168,购物服务
503,爱睫物语(上海苏河湾万象天地店),福建北路与天潼路交叉口东南140米,121.479351,31.242332,购物服务
504,天后宫,三泰路,121.479346,31.241741,风景名胜
505,复一进修学院,北京东路与顾家弄交叉口北80米,121.477657,31.239425,科教文化服务
506,上海市科技创业中心,北京东路与福建中路交叉口西60米,121.478423,31.239333,商务住宅
507,爱回收(上海新世界城店),南京西路2-68号新世界城b2层下行扶梯右侧(7号地铁通道口处)爱回收店,121.473649,31.235131,生活服务
508,国际饭店蝴蝶酥,江西中路与北京东路交叉口东南60米,121.485761,31.240135,餐饮服务
509,趣拿(雅居乐国际广场店),西藏中路与凤阳路交叉口西南20米,121.473588,31.236168,购物服务
510,上门开锁,山西南路296号,121.481723,31.238321,生活服务
511,果之粹(新世界城店),南京西路2新世界城B1层(人民广场地铁站7号口步行60米),121.473649,31.235131,餐饮服务
512,DZ HAIR SALON(第一百货商业中心A馆店),六合路与凤阳路交叉口南60米,121.474606,31.235832,生活服务
513,潮春熙.潮汕菜.砂锅粥(港陆黄浦中心店),六合路98号(人民广场地铁站19号口步行330米),121.474952,31.236419,餐饮服务
514,步叶废旧物资回收,南苏州路469号(南京东路地铁站6号口步行370米),121.482129,31.240646,生活服务
515,上海智生道信息科技有限公司,六合路98号22楼A座,121.474973,31.236726,公司企业
516,breo倍輕鬆(万象天地店),福建北路100号万象天地LG185倍轻松,121.479344,31.242364,购物服务
517,New coffee & bar,南京西路2-68号,121.473565,31.234606,餐饮服务
518,星赋辰策划·宝宝宴·求婚·生日·公司活动,山东北路与北京东路交叉口东北20米,121.482328,31.240399,生活服务
519,月球精品剧本推理梦剧场,云南北路与宁波路交叉口西北40米,121.475074,31.236637,体育休闲服务
520,渝二姐冒菜(新世界城店),南京西路2新世界城B1层(人民广场地铁站7号口步行60米),121.473183,31.235232,餐饮服务
521,和平酒吧,浙江中路与南苏州路交叉口东南20米,121.476607,31.240956,体育休闲服务
522,HUAWEI华为维修中心(永新广场店),南京西路128号永新广场,121.47226,31.233954,生活服务
523,上海北郊未来产业园科创会客厅,北京西路1号,121.473235,31.237339,商务住宅
524,中央商务区排水系统提标改造工程1标项目部,厦门路197号,121.474659,31.23938,公司企业
525,美幸咖啡,南苏州路与浙江中路交叉口东南20米,121.476734,31.240976,餐饮服务
526,上海曜影医院,江西中路350号,121.486121,31.239373,医疗保健服务
527,新世界城2号楼,南京西路,121.473569,31.235372,地名地址信息
528,816sweet酒吧,南苏州河路933号1层107室,121.474658,31.240945,体育休闲服务
529,小小福大骨牛肉汤,山西南路与宁波路交叉口东南20米,121.481707,31.238564,餐饮服务
530,胡记游子老鸭粉丝汤(德仁里店),广西北路宁波路446弄561号德仁里,121.476809,31.236393,餐饮服务
531,白领课堂,南京东路300号恒基名人广场4楼,121.484034,31.237886,科教文化服务
532,励念空间,华隆大厦6楼(南京东路地铁站6号口步行430米),121.484017,31.241899,公司企业
533,人马线健身联盟(恒基名人购物中心),南京东路300号恒基名人购物中心L5层,121.484079,31.238269,体育休闲服务
534,中建八局南京东路132项目部,广西北路527号,121.476011,31.238119,公司企业
535,星空间16号·HAHALAND小剧场,广西北路与宁波路交叉口西北20米,121.476551,31.236793,风景名胜
536,百空间BAIwork,国庆路与晋元路交叉口西南100米,121.469813,31.239776,公司企业
537,M Stand(新世界店),南京西路2新世界城L1层(人民广场地铁站19号口步行80米),121.473915,31.235314,餐饮服务
538,ROCK CLOUD(新世界城店),南京西路2新世界城L1层(人民广场地铁站19号口步行80米),121.473581,31.23533,购物服务
539,月见SPA(百联ZX店),南京东路324弄19号(南京东路地铁站3号口步行90米),121.48341,31.237344,生活服务
540,遇见·蛋糕DIY烘焙(第一百货商业中心店),南京东路800号第一百货商业中心F6层,121.475434,31.235383,餐饮服务
541,房地大厦东楼,牯岭路与白河路交叉口北40米,121.471589,31.236477,商务住宅
542,富小馆烧烤串串(人民广场店),山西南路246号(南京东路地铁站1号口步行210米),121.481978,31.238025,餐饮服务
543,来尚图文快印(仁德里店),北京西路168号(新闸路地铁站6号口步行260米),121.470267,31.236326,生活服务
544,摩登别墅,西藏中路725弄37号(新闸路地铁站6号口步行270米),121.471666,31.238914,商务住宅
545,桂桂茶(恒基名人店),河南中路300号恒基名人B1层,121.484009,31.237877,餐饮服务
546,X先生沉浸娱乐(新世界城店),南京西路2新世界城F4层(人民广场地铁站7号口步行60米),121.473695,31.235089,体育休闲服务
547,世纪华联,南苏州路与河南中路辅路交叉口东北40米,121.483703,31.241892,购物服务
548,馨俪美甲,天津路与五福弄交叉口东40米,121.481464,31.237522,生活服务
549,Salvatori Shanghai Flag Showroom,北苏州路498号1楼(天潼路地铁站3号口步行360米),121.481915,31.241741,购物服务
550,阳场十里私藏菜,宁波路与河南中路交叉口西40米,121.483711,31.239248,餐饮服务
551,泰克网络(六合大厦店),云南北路59号六合大厦F8层,121.474806,31.237166,体育休闲服务
552,晟农实业,山西南路350号上海物资大厦F3层,121.481625,31.239498,公司企业
553,玉福祥玉器店,南京东路558号南京路步行街(西北角),121.478811,31.236652,购物服务
554,上海啧轩餐饮店,河南中路563号,121.483831,31.239989,餐饮服务
555,觉心斋成人国学,北京东路与山西南路交叉口东60米,121.481596,31.239586,科教文化服务
556,华鹏装潢五金(积福里店),宁波路473弄1-9号积福里,121.478926,31.237418,购物服务
557,常顾老梁干挑面,天津路与天津路170弄交叉口西南20米,121.483164,31.238087,餐饮服务
558,雅居乐万豪酒店健身中心,西藏中路与凤阳路交叉口西60米,121.473278,31.2363,体育休闲服务
559,星空幻饮(第一百货商业中心C馆店),南京东路800号第一百货c馆F3层,121.475002,31.236061,餐饮服务
560,小桔充电汽车充电站(BP快速充电站上海第一百货商店),港陆黄浦中心地下停车场(人民广场地铁站19号口步行400米),121.475277,31.236277,汽车服务
561,李记小菜(德兴里店),牛庄路731弄4-4号德兴里,121.476387,31.237265,餐饮服务
562,上海复珺信息科技有限公司,四川中路607号8楼(南京东路地铁站6号口步行480米),121.486097,31.241915,公司企业
563,立早大王锅贴(宁波路店),宁波路201号宁新小区(南京东路地铁站6号口步行120米),121.483372,31.239003,餐饮服务
564,老上海蛋饼王(洪德里店),浙江中路与厦门路交叉口南40米,121.476456,31.239357,餐饮服务
565,zeppelin coffee,河南中路565号(南京东路地铁站6号口步行140米),121.483821,31.240004,餐饮服务
566,麦当劳(黄浦恒基名人购物中心餐厅),南京东路300号恒基名人购物中心B2层B203,121.483827,31.237824,餐饮服务
567,脱单吧,山东北路与北京东路交叉口北40米,121.48229,31.240392,体育休闲服务
568,POLA(新世界城店),南京西路2新世界城B1层(人民广场地铁站7号口步行60米),121.473581,31.23533,购物服务
569,分蛋科技,天津路180号应氏大厦F15层,121.482569,31.238233,公司企业
570,微趣网络科技,山西南路350号上海物资大厦F17层,121.481625,31.239498,公司企业
571,上海良模公司,浙江中路398春申江大厦F8层,121.478198,31.236107,公司企业
572,苹果手机电脑售后维修中心(永亨大楼店),宁波路266号,121.482138,31.238967,生活服务
573,河滨豪园2号,"北苏州路668号,山西北路9弄",121.480321,31.240975,地名地址信息
574,宁波小区14号,宁波路120弄(南京东路地铁站6号口步行60米),121.484891,31.239976,地名地址信息
575,宁波小区12号,宁波路120弄(南京东路地铁站6号口步行60米),121.484599,31.239698,地名地址信息
576,宁波小区8号,宁波路120弄(南京东路地铁站6号口步行60米),121.484977,31.239756,地名地址信息
577,新冬雀友会,北京东路398号(南京东路地铁站6号口步行350米),121.482209,31.240492,体育休闲服务
578,东风小区东区179弄17号,天津路195弄1-54号(南京东路地铁站1号口步行120米),121.483088,31.237608,地名地址信息
579,东风小区东区195弄30号,天津路195弄1-54号(南京东路地铁站1号口步行120米),121.482651,31.237477,地名地址信息
580,天津路157弄14号,南京东路300号F3层L316,121.483549,31.237787,地名地址信息
581,东风小区东区195弄1号,天津路195弄1-54号(南京东路地铁站1号口步行120米),121.482643,31.237789,地名地址信息
582,东风小区东区179弄8号,天津路195弄1-54号(南京东路地铁站1号口步行120米),121.482983,31.237666,地名地址信息
583,东风小区东区195弄10号,天津路195弄1-54号(南京东路地铁站1号口步行120米),121.482566,31.237687,地名地址信息
584,东风小区东区195弄54号,天津路195弄1-54号(南京东路地铁站1号口步行120米),121.482653,31.237307,地名地址信息
585,天津路157弄10号,南京东路300号F3层L316,121.483507,31.237848,地名地址信息
586,东风小区东区179弄6号,天津路195弄1-54号(南京东路地铁站1号口步行120米),121.482915,31.237812,地名地址信息
587,东风小区东区179弄7号,天津路195弄1-54号(南京东路地铁站1号口步行120米),121.482987,31.237832,地名地址信息
588,东风小区东区195弄21号,天津路195弄1-54号(南京东路地铁站1号口步行120米),121.48279,31.237466,地名地址信息
589,东风小区东区179弄10号,天津路195弄1-54号(南京东路地铁站1号口步行120米),121.483023,31.237541,地名地址信息
590,东风小区东区195弄11号,天津路195弄1-54号(南京东路地铁站1号口步行120米),121.482756,31.237608,地名地址信息
591,东风小区东区195弄14号,天津路195弄1-54号(南京东路地铁站1号口步行120米),121.482587,31.237593,地名地址信息
592,东风小区东区195弄50号,天津路195弄1-54号(南京东路地铁站1号口步行120米),121.482751,31.237294,地名地址信息
593,吉祥里12号,河南中路541弄8-36号(南京东路地铁站6号口步行80米),121.483492,31.239436,地名地址信息
594,上海小楼,江西中路与宁波路交叉口北20米,121.485926,31.239825,商务住宅
595,吉祥里20号,河南中路541弄8-36号(南京东路地铁站6号口步行80米),121.483335,31.239584,地名地址信息
596,吉祥里26号,河南中路541弄8-36号(南京东路地铁站6号口步行80米),121.483053,31.239374,地名地址信息
597,涵苑私宴定制,山东北路与北京东路交叉口北20米,121.48232,31.240373,购物服务
598,上海新世界丽笙大酒店·大堂吧,凤阳路与长沙路交叉口南100米,121.473124,31.234354,餐饮服务
599,发艺坊,北京西路与温州路交叉口南40米,121.470675,31.235959,生活服务
600,成渝川奇面,天津路170弄与天津路交叉口北20米,121.483283,31.238388,餐饮服务
601,伊品香牛肉面,香港路与江西中路交叉口东20米,121.485221,31.242335,餐饮服务
602,T5舞蹈(人民广场店),南京东路8-830号第一百货C座6楼,121.475466,31.235074,科教文化服务
603,JessieCui公寓(天津路1号分店),天津路226号(南京东路地铁站1号口步行210米),121.482146,31.237918,住宿服务
604,奋发标准件有限公司,福建中路与台湾路交叉口西南20米,121.479487,31.237568,购物服务
605,福瑞小区3-2号,温州路48号(新闸路地铁站6号口步行100米),121.47054,31.238008,地名地址信息
606,福瑞小区5号,温州路48号(新闸路地铁站6号口步行100米),121.47057,31.23797,地名地址信息
607,衍庆里18号,厦门路230弄2-76号,121.474172,31.239583,地名地址信息
608,人安里21号,"牯岭路145弄3-33号,牯岭路145弄4-26号",121.471456,31.235649,地名地址信息
609,人安里22号,"牯岭路145弄3-33号,牯岭路145弄4-26号",121.471298,31.235405,地名地址信息
610,人安里4号,"牯岭路145弄3-33号,牯岭路145弄4-26号",121.471126,31.235776,地名地址信息
611,人安里151号,"牯岭路145弄3-33号,牯岭路145弄4-26号",121.471075,31.235899,地名地址信息
612,人安里定兴路8号,"牯岭路145弄3-33号,牯岭路145弄4-26号",121.471511,31.235358,地名地址信息
613,人安里8号,"牯岭路145弄3-33号,牯岭路145弄4-26号",121.470964,31.235739,地名地址信息
614,人安里20号,"牯岭路145弄3-33号,牯岭路145弄4-26号",121.471043,31.235479,地名地址信息
615,人安里33号,"牯岭路145弄3-33号,牯岭路145弄4-26号",121.471618,31.235549,地名地址信息
616,人安里31号,"牯岭路145弄3-33号,牯岭路145弄4-26号",121.471573,31.23553,地名地址信息
617,人安里139号,"牯岭路145弄3-33号,牯岭路145弄4-26号",121.471264,31.235959,地名地址信息
618,人安里24号,"牯岭路145弄3-33号,牯岭路145弄4-26号",121.471218,31.235371,地名地址信息
619,后逢吉里119号,贵州路131弄4-16号,121.476018,31.236222,地名地址信息
620,后逢吉里115号,贵州路131弄4-16号,121.47604,31.23617,地名地址信息
621,怡水豪庭1幢,南苏州路933号,121.474685,31.24043,地名地址信息
622,长新大楼1号楼,新闸路200号(新闸路地铁站6号口步行70米),121.469743,31.238653,地名地址信息
623,山北小区30号,河南中路575弄1-11号,121.48252,31.239715,地名地址信息
624,怀德里凤阳路228弄20号,凤阳路228弄6-50号(人民广场地铁站8号口步行260米),121.471326,31.234641,地名地址信息
625,怀德里凤阳路228弄6号,凤阳路200弄3-11号、4-12号,121.471509,31.234372,地名地址信息
626,渭水坊宁波路542弄8号,广西北路470弄2-10号,121.476775,31.237139,地名地址信息
627,渭水坊浙江中路475号,广西北路470弄2-10号,121.47708,31.237223,地名地址信息
628,山北小区7号,河南中路575弄1-11号,121.482908,31.239829,地名地址信息
629,协和里5号,牯岭路167号近黄河路(人民广场地铁站8号口步行350米),121.470664,31.235493,地名地址信息
630,人安里16号,牯岭路167号近黄河路(人民广场地铁站8号口步行350米),121.471241,31.235526,地名地址信息
631,协和里175号,牯岭路167号近黄河路(人民广场地铁站8号口步行350米),121.470682,31.235709,地名地址信息
632,协和里181号,牯岭路167号近黄河路(人民广场地铁站8号口步行350米),121.470628,31.23568,地名地址信息
633,怀德里凤阳路200弄8号,凤阳路200弄3-11号、4-12号,121.471607,31.234991,地名地址信息
634,渭水坊宁波路546号,广西北路470弄2-10号,121.477044,31.236973,地名地址信息
635,渭水坊浙江中路548号,广西北路470弄2-10号,121.477037,31.236974,地名地址信息
636,宁新小区201号楼,宁波路201号(南京东路地铁站6号口步行110米),121.483396,31.238938,地名地址信息
637,山北小区385号,河南中路575弄1-11号,121.482663,31.240047,地名地址信息
638,山北小区375号,河南中路575弄1-11号,121.482822,31.240077,地名地址信息
639,怀德里凤阳路200弄4号,凤阳路200弄3-11号、4-12号,121.471713,31.234764,地名地址信息
640,怀德里凤阳路228弄26号,凤阳路200弄3-11号、4-12号,121.471524,31.2347,地名地址信息
641,山北小区335号,河南中路575弄1-11号,121.483365,31.240184,地名地址信息
642,山北小区345号,河南中路575弄1-11号,121.483199,31.240152,地名地址信息
643,人安里14号,牯岭路167号近黄河路(人民广场地铁站8号口步行350米),121.471027,31.235634,地名地址信息
644,怀德里凤阳路200弄7号,凤阳路200弄3-11号、4-12号,121.47159,31.234891,地名地址信息
645,怀德里凤阳路200弄12号,凤阳路200弄3-11号、4-12号,121.471527,31.235186,地名地址信息
646,洪德里2号,厦门路137弄,121.476343,31.239434,地名地址信息
647,洪德里12号,厦门路137弄,121.476097,31.239412,地名地址信息
648,洪德里18号,厦门路137弄,121.47595,31.239399,地名地址信息
649,洪德里16号,厦门路137弄,121.476003,31.239403,地名地址信息
650,洪德里8号,厦门路137弄,121.476193,31.239422,地名地址信息
651,洪德里10号,厦门路137弄,121.47615,31.239417,地名地址信息
652,洪德里14号,厦门路137弄,121.47605,31.239407,地名地址信息
653,松柏公寓北楼,北京东路431弄1-21号,121.482089,31.239688,地名地址信息
654,洪德里20号,厦门路137弄,121.475901,31.239392,地名地址信息
655,洪德里4号,厦门路137弄,121.476298,31.239432,地名地址信息
656,洪德里6号,厦门路137弄,121.476245,31.239427,地名地址信息
657,水景苑166号,新闸路166-168号(新闸路地铁站6号口步行90米),121.470426,31.238652,地名地址信息
658,广隆财务,北京东路378号景云大厦6楼,121.482643,31.240548,金融保险服务
659,上海玮浦公司,北京东路668号科技京城大厦东楼2楼,121.478441,31.239302,公司企业
660,Carolinemurat(男装定制店),香港路117号102室(沿街),121.485721,31.242491,购物服务
661,稻香城市饭堂,天津路与天津路170弄交叉口西南20米,121.483003,31.238008,餐饮服务
662,华艺上海空间,北京东路270号2层(南京东路地铁站6号口步行260米),121.484856,31.240627,公司企业
663,QUEEN BLOOM(华侨城苏河湾东区88号院店),河南北路辅路与北苏州路交叉口西100米,121.481664,31.242381,购物服务
664,德仁里21号,广西北路宁波路446弄561号,121.477041,31.23648,地名地址信息
665,德仁里11号,广西北路宁波路446弄561号,121.477073,31.236318,地名地址信息
666,敏华冰厅(万象天地店),福建北路100号LG2层LG268号,121.479162,31.242268,餐饮服务
667,梵松SPA会所,北京东路398号(南京东路地铁站6号口步行310米),121.482321,31.240411,生活服务
668,和立烟酒商行,凤阳路与白河路交叉口西南60米,121.471725,31.234435,购物服务
669,杜莎无限人生沉浸式戏剧游戏,凤阳路与长沙路交叉口东80米(人民广场地铁站出入口旁),121.473641,31.235162,体育休闲服务
670,宁波小区18号,宁波路120弄(南京东路地铁站6号口步行60米),121.484552,31.239914,地名地址信息
671,宁波小区2号,宁波路120弄(南京东路地铁站6号口步行60米),121.485013,31.23953,地名地址信息
672,宁波小区22号,宁波路120弄(南京东路地铁站6号口步行60米),121.484456,31.24014,地名地址信息
673,三和里23号,江西中路412弄1-51号,121.485939,31.241189,地名地址信息
674,三和里33号,江西中路412弄1-51号,121.485907,31.241382,地名地址信息
675,三和里45号,江西中路412弄1-51号,121.48586,31.241526,地名地址信息
676,三和里5号,江西中路412弄1-51号,121.485818,31.241159,地名地址信息
677,三和里15号,江西中路412弄1-51号,121.485466,31.241427,地名地址信息
678,三和里21号,江西中路412弄1-51号,121.485752,31.241499,地名地址信息
679,三和里11号,江西中路412弄1-51号,121.485664,31.241362,地名地址信息
680,三和里17号,江西中路412弄1-51号,121.485557,31.241446,地名地址信息
681,三和里430号,江西中路412弄1-51号,121.485405,31.241312,地名地址信息
682,三和里1号,江西中路412弄1-51号,121.48559,31.241107,地名地址信息
683,三和里3号,江西中路412弄1-51号,121.485706,31.241132,地名地址信息
684,三和里7号,江西中路412弄1-51号,121.485503,31.241323,地名地址信息
685,三和里19号,江西中路412弄1-51号,121.485661,31.241472,地名地址信息
686,三和里25号,江西中路412弄1-51号,121.486014,31.241205,地名地址信息
687,三和里47号,江西中路412弄1-51号,121.485933,31.241591,地名地址信息
688,三和里9号,江西中路412弄1-51号,121.485581,31.241341,地名地址信息
689,三和里37号,江西中路412弄1-51号,121.486039,31.241404,地名地址信息
690,三和里426号,江西中路412弄1-51号,121.485447,31.241219,地名地址信息
691,(内部使用)蔚来目充站上海百空间香港路,香港路117号,121.48557,31.242348,汽车服务
692,三和里13号,江西中路412弄1-51号,121.485753,31.241383,地名地址信息
693,三和里35号,江西中路412弄1-51号,121.485969,31.241395,地名地址信息
694,三和里428号,江西中路412弄1-51号,121.48543,31.241273,地名地址信息
695,恒丰大楼1幢,江西中路452号(南京东路地铁站6号口步行400米),121.485257,31.241666,地名地址信息
696,山石榴贵州菜(苏河湾万象天地店),福建北路100号上海苏河湾万象天地B2层,121.478139,31.242175,餐饮服务
697,Boocup(上海苏河湾万象天地店),福建北路100号东里LG2,121.47916,31.242364,餐饮服务
698,景莱酒店·精选(上海南京路步行街人民广场店),山西南路350号上海物资大厦F3层,121.481602,31.239545,住宿服务
699,D+专业漂染沙龙,南京东路800号第一百货商业中心F3层,121.474648,31.235919,生活服务
700,阿文熟食店,宁波路201号宁新小区(南京东路地铁站6号口步行110米),121.483457,31.239003,餐饮服务
701,舒适堡健身,凤阳路与西藏中路交叉口西60米,121.473337,31.23593,体育休闲服务
702,东芝(新世界城店),南京西路2新世界城L7层(人民广场地铁站7号口步行60米),121.473596,31.235567,购物服务
703,FLOW心流所(上海苏河湾万象天地店),福建北路100号万象天地东里LG2层272店铺,121.479204,31.24232,生活服务
704,馋三尺人民广场店,凤阳路与六合路交叉口西南20米,121.474493,31.236668,餐饮服务
705,基本生鲜超市(无锡小区店),宁波路与五福弄交叉口西20米,121.480602,31.238461,购物服务
706,新月星羊肉馆,宁波路190号C(南京东路地铁站6口步行10米),121.483543,31.239221,餐饮服务
707,基厂Corghaus(万象天地店),福建北路100号上海苏河湾万象天地B1层,121.479373,31.242297,餐饮服务
708,EVM Premium量肤定制美肌沙龙(苏河湾万象天地店),苏河湾万象天地-福建北路100号LG层178B,121.47935,31.242201,生活服务
709,松鹤楼(苏河湾万象天地店),福建北路100号上海苏河湾万象天地B1层,121.478887,31.242284,餐饮服务
710,HONOR荣耀手机售后维修中心(六合大厦店),云南北路59号六合大厦1楼,121.474802,31.237141,生活服务
711,五福弄29号,南京东路486弄-9-21号,121.481153,31.236771,地名地址信息
712,保安坊67号,南京东路486弄-9-21号,121.480926,31.236643,地名地址信息
713,盆汤弄80号,南京东路486弄-9-21号,121.480763,31.236689,地名地址信息
714,保安坊15号,南京东路486弄-9-21号,121.48071,31.236605,地名地址信息
715,PetSugar倍甜宠物生活体验馆(苏河湾万象天地广场店),福建北路100号LG288-290,121.479344,31.242396,购物服务
716,新就业群体服务站点,宁波路120弄24号,121.484813,31.240087,生活服务
717,川爷重庆居民楼火锅,贵州路163号(人民广场地铁站19号口步行440米),121.475998,31.236945,餐饮服务
718,新就业群体服务站点,北京东路288弄80号,121.484293,31.241807,生活服务
719,神象,六合路与凤阳路交叉口南60米,121.474807,31.235853,医疗保健服务
720,无忧传媒,西藏中路525号雅居乐国际广场2层,121.473431,31.236142,科教文化服务
721,老上海绿豆汤(爱民弄店),贵州路与天津路交叉口北40米,121.476364,31.236186,餐饮服务
722,宿适酒店(上海外滩南京东路地铁站店),河南中路505号(南京东路地铁站6号口步行60米),121.483915,31.239016,住宿服务
723,上海巫肖旭公寓(申报馆旧址分店),山西南路308号(南京东路地铁站1号口步行330米),121.481608,31.239018,住宿服务
724,上海誉申能源科技发展有限公司,西藏中路728号美欣大厦F3层,121.473019,31.239821,公司企业
725,拓方网络,北京西路95号上海市规划和自然资源局九层,121.471175,31.23637,体育休闲服务
726,意略明公司,天津路155号恒基名人广场25层,121.484034,31.237886,公司企业
727,一百物业,六合路58号新一百大厦1层A座,121.475169,31.236016,公司企业
728,安似科技,南京西路128号永新广场F2层,121.472135,31.234147,公司企业
729,蘭派·芑趴鲵墅春轰对派别馆(上海苏河湾万象天地店),凤阳路60-5号-,121.479274,31.241783,餐饮服务
730,女洗手间(雅居乐国际广场),西藏中路525号雅居乐国际广场B2层,121.473262,31.236229,公共设施
731,男洗手间(雅居乐国际广场),西藏中路525号雅居乐国际广场B2层,121.473252,31.236251,公共设施
732,玻璃门窗(人安里店),青岛路承兴里(人民广场地铁站8号口步行340米),121.471638,31.235666,购物服务
733,发型设计(怀德里店),定兴路与白河路交叉口西南60米,121.471281,31.235107,生活服务
734,潮品花茶店,江西中路与沙市二路交叉口北60米,121.486491,31.238308,购物服务
735,上海松策机电有限公司,顾家弄与牛庄路交叉口西南20米,121.47793,31.237778,公司企业
736,名包名表回收,河南中路541弄8-36号吉祥里,121.483792,31.239649,生活服务
737,特色的茶餐厅(渭水坊店),宁波路与广西北路交叉口东北20米,121.476671,31.23681,餐饮服务
738,茜莱房产,南苏州路与山西南路交叉口西南20米,121.480731,31.239912,生活服务
739,蓝盾法律,山东北路与北京东路交叉口南20米,121.482257,31.23988,生活服务
740,同仁大药房(南京西路店),南京西路2-68号(人民广场地铁站19号口步行60米),121.474127,31.234857,医疗保健服务
741,史努比(百联ZX店),南京路步行街与山东中路交叉口西60米,121.483487,31.237227,购物服务
742,象屿金控,南苏州路999号象屿集团大厦,121.471497,31.23912,金融保险服务
743,上海邦心锁业有限公司,牯岭路135号(人民广场地铁站7号口步行380米),121.471343,31.236025,公司企业
744,兴和医药(永新广场店),南京西路128号永新广场F1层,121.472135,31.234147,医疗保健服务
745,国大药房(四川中路店),四川中路623号,121.486144,31.242312,医疗保健服务
746,那七爷米粉(新世界城店),南京西路2新世界城B1层,121.473436,31.234839,餐饮服务
747,兰选咖啡(白玉兰酒店人民广场店),白玉兰酒店人民广场店,121.474954,31.23787,餐饮服务
748,阿加莎·一台好戏剧场,牛庄路704号,121.476531,31.237646,体育休闲服务
749,男洗手间(第一百货商业中心C馆),南京东路830号第一百货商业中心C馆B2层,121.474985,31.236027,公共设施
750,男洗手间(第一百货商业中心C馆),南京东路830号第一百货商业中心C馆F2层,121.475487,31.235524,公共设施
751,男洗手间(第一百货商业中心C馆),南京东路830号第一百货商业中心C馆F4层,121.475489,31.235499,公共设施
752,北苏州路,静安区,121.477679,31.24131,地名地址信息
753,上海神隆机电工具有限公司,北京东路530号,121.480144,31.239535,购物服务
754,西藏北路,黄浦区,121.472839,31.23937,地名地址信息
755,西藏中路,静安区,121.472104,31.24027,地名地址信息
756,河南路桥,静安区,121.482574,31.242601,地名地址信息
757,河南北路辅路,黄浦区,121.483632,31.241105,地名地址信息
758,河南北路辅路,黄浦区,121.483632,31.241105,地名地址信息
759,河南中路辅路,黄浦区,121.483632,31.241105,地名地址信息
760,河南路桥,黄浦区,121.483406,31.241337,地名地址信息
761,河南路桥,虹口区,121.482705,31.242684,地名地址信息
762,河南路桥,黄浦区,121.483405,31.241337,地名地址信息
763,河南中路辅路,黄浦区,121.483632,31.241105,地名地址信息
764,轻住酒店(雅悦店),山西南路与宁波路交叉口东南20米,121.481728,31.238527,住宿服务
765,浙江北路,黄浦区,121.47654,31.241267,地名地址信息
766,天津路,黄浦区,121.485002,31.23879,地名地址信息
767,ANTOINE BAKERY(第一百货商业中心A馆),南京东路830号第一百货商业中心A馆F3层,121.474677,31.235433,餐饮服务
768,上海煤气实业总公司,西藏中路美华大楼,121.473288,31.238638,公司企业
769,福建路桥,黄浦区,121.478909,31.239702,地名地址信息
770,福建路桥,静安区,121.478874,31.241351,地名地址信息
771,上海安望五金,宁波路439弄2-6号正门旁,121.479051,31.237579,购物服务
772,人民饭堂(雅居乐国际广场店),南京东路街道西藏中路525号,121.473074,31.235996,餐饮服务
773,保利管道疏通水电安装服务部,宁波路350号,121.480681,31.238449,生活服务
774,浙江路桥,黄浦区,121.47654,31.241266,地名地址信息
775,浙江路桥,静安区,121.476564,31.241593,地名地址信息
776,浙江路桥,黄浦区,121.47654,31.241267,地名地址信息
777,西藏路桥,黄浦区,121.472839,31.23937,地名地址信息
778,无锡小区65号楼,山西南路349弄9-11号无锡小区,121.480281,31.238479,地名地址信息
779,泉味源(泛太平洋国际大厦店),泛太平洋国际大厦(人民广场地铁站19号口步行330米),121.474148,31.237063,餐饮服务
780,简舍i公寓(新闸路分店),新闸路长新大楼新闸路200号(新闸路地铁站6号口步行60米),121.46985,31.238668,住宿服务
781,米扬公寓,沪太路1598号,121.481572,31.237776,住宿服务
782,天津路138弄3-5号,天津路与山东北路交叉口东北40米,121.48355,31.238527,商务住宅
783,成量工具,住业大厦正门旁(新闸路地铁站6号口步行260米),121.470601,31.236222,购物服务
784,群力帆布滤料有限公司,南苏州路与浙江中路交叉口东40米,121.476991,31.240922,公司企业
785,北京东路360弄3-20号,北京东路与河南中路辅路交叉口西60米,121.483117,31.240504,商务住宅
786,台湾路小商品市场,福建中路与宁波路交叉口东北40米,121.479771,31.237939,购物服务
787,好再来烟酒,天津路与石潭弄交叉口西20米,121.48008,31.237229,购物服务
788,虎修手机维修回收,山西南路与天津路交叉口西北60米,121.481612,31.238109,生活服务
789,一食当家,南京东路720号第一食品商店2楼,121.476487,31.235488,餐饮服务
790,上海运浩贸易商行(满春坊店),石潭弄与台湾路交叉口东南20米,121.480147,31.237551,购物服务
791,老样子米线,宁波路621号(人民广场地铁站19号口步行420米),121.47592,31.236489,餐饮服务
792,上海交通大学继续教育学院,浙江中路398号春申江大厦918室,121.478223,31.236321,科教文化服务
793,山西北路9弄,山西北路与三泰路交叉口西南20米,121.480487,31.241258,商务住宅
794,上海总商会,北苏州路与河南北路辅路交叉口西20米,121.48252,31.242159,政府机构及社会团体
795,大隐国际青年旅舍(上海南京东路人民广场外滩店),六合路98号港陆黄浦中心2楼,121.474897,31.236434,住宿服务
796,东北饺子馆,上海钱业公会南门旁(南京东路地铁站1号口步行270米),121.481803,31.238485,餐饮服务
797,Red X 餐饮供应链众创空间,西藏中路725弄37号(新闸路地铁站6号口步行270米),121.471666,31.238914,公司企业
798,NOBLE BRIDAL,香港路117号102室,121.485681,31.242494,公司企业
799,Object Momento 画廊,江西中路349号3层3D(南京东路地铁站6号口步行170米),121.485887,31.23941,科教文化服务
800,上海路客轻居RUKD00公寓,山西南路350号上海物资大厦F3层,121.48135,31.23947,住宿服务
801,BN work,光复路127号百空间四行仓库光三分库F1层,121.469651,31.239639,公司企业
802,御膳·筒骨饭,牛庄路永平安(人民广场地铁站19号口步行420米),121.475352,31.237026,餐饮服务
803,碧云花园服务公寓-早餐厅,北京西路上海黄浦碧云苑服务公寓(上海人民广场店),121.472698,31.236969,餐饮服务
804,菜饭骨头汤(协和里店),牯岭路167号近黄河路协和里,121.471128,31.235161,餐饮服务
805,天津路236弄,天津路与山西南路交叉口西20米,121.481742,31.237805,商务住宅
806,四川中路629号,四川中路与香港路交叉口南40米,121.486067,31.242343,商务住宅
807,出色color染发烫发接发,南京西路88号丽笙大酒店7楼,121.472932,31.234969,生活服务
808,三星小区692号楼,牛庄路与广西北路交叉口东北40米,121.476868,31.237668,地名地址信息
809,北京东路288弄,河南中路辅路与南苏州路交叉口东80米,121.484173,31.241476,商务住宅
810,中国原子能华东客户服务中心,南苏州路333号华隆大厦F16层,121.483933,31.241893,生活服务
811,宝岑烟酒便利店,山西南路与宁波路交叉口西北20米,121.481519,31.238671,购物服务
812,蓝调餐厅,南苏州路尊德里,121.476387,31.241047,餐饮服务
813,永旭建筑材料,山西南路与宁波路交叉口北20米,121.481607,31.238745,购物服务
814,美食光砂锅麻辣烫,宁波路与河南中路交叉口西40米,121.48364,31.23923,餐饮服务
815,山北小区355号,南京东路地铁站6号口步行230米,121.483026,31.240115,地名地址信息
816,江西中路473号,江西中路与香港路交叉口西南20米,121.484879,31.242159,商务住宅
817,北京东路460号,南苏州路与山西南路交叉口东40米,121.481339,31.239988,商务住宅
818,天津路357弄,天津路与福建中路交叉口西南20米,121.479708,31.236867,商务住宅
819,宁波路645号,宁波路与云南北路交叉口东南20米,121.475469,31.236339,商务住宅
820,NOWWA COFFEE(上海科技京城店),北京东路与顾家弄交叉口东北60米,121.478006,31.23914,餐饮服务
821,思尔德店面,北京东路668号上海科技京城F1层,121.478366,31.23923,餐饮服务
822,江西中路469弄,江西中路与香港路交叉口西南20米,121.484854,31.242096,商务住宅
823,专业拖车救援,广西北路493号,121.47627,31.237228,汽车服务
824,锦江都城经典上海南京路步行街南京饭店大堂,山西南路与天津路交叉口东南60米,121.482254,31.237366,住宿服务
825,四川中路617号,四川中路与香港路交叉口南40米,121.486103,31.242235,商务住宅
826,北京东路316弄,河南中路辅路与北京东路交叉口东北60米,121.484119,31.241017,商务住宅
827,山西南路255弄,山西南路与天津路交叉口西北40米,121.481669,31.238117,商务住宅
828,白河路21弄,白河路与定兴路交叉口南20米,121.471766,31.235157,商务住宅
829,城市主题叶小姐民宿(山东北路分店),山东北路上海松柏公寓(南京东路地铁站6号口步行250米),121.482186,31.239593,住宿服务
830,江西中路481号,江西中路与香港路交叉口西北20米,121.484818,31.242352,商务住宅
831,海洋之家公寓民宿(山东北路分店),山东北路松柏公寓南楼(南京东路地铁站6号口步行230米),121.482329,31.239308,住宿服务
832,四川中路615号,四川中路与香港路交叉口南40米,121.4861,31.242257,商务住宅
833,江西中路368号,江西中路与宁波路交叉口北20米,121.485964,31.239812,商务住宅
834,国家电网汽车充电站(上海市黄浦区新协通国际大酒店),北京东路398号(南京东路地铁站6号口步行340米),121.482323,31.240453,汽车服务
835,河南省濮阳市驻上海人才工作站,三元号青年公寓东南门旁(南京东路地铁站6号口步行500米),121.48515,31.242415,政府机构及社会团体
836,亨达利钟表公司,南京路步行街与山东中路交叉口西40米,121.483589,31.237205,购物服务
837,鲷鱼烙,山西南路与南京路步行街交叉口西北60米,121.482274,31.237023,餐饮服务
838,上海信息系统工程咨询有限公司,北京东路668号科技京城大厦东楼2楼,121.478441,31.239302,公司企业
839,外滩金融科技总汇,南京东路春申江大厦,121.478222,31.236179,金融保险服务
840,老街称盘麻辣烫,宁波路204号老街称盘麻辣烫,121.483282,31.239166,餐饮服务
841,中国电信公用电话,南苏州路与河南中路辅路交叉口东北80米,121.484024,31.242198,公共设施
842,人安里治安岗亭,定兴路与白河路交叉口西40米,121.471424,31.23544,政府机构及社会团体
843,食正极品牌管理(上海)有限公司,香港路与江西中路交叉口东40米,121.485387,31.242412,公司企业
844,欣谊环卫,白河路与定兴路交叉口南20米,121.471847,31.235239,生活服务
845,上海市学生社区实践指导站,北京东路与河南中路交叉口东40米,121.484226,31.240354,科教文化服务
846,带锯锯片,北京东路与山东北路交叉口西40米,121.481795,31.240162,购物服务
847,豪宅公寓(西藏中路七二五弄分店),西藏中路七二五弄家化中房苑(新闸路地铁站6号口步行360米),121.472124,31.23941,住宿服务
848,简舍I民宿(外滩3号店),上海上海黄浦北京东路378号景云大楼304室,121.482824,31.240464,住宿服务
849,犟驴先生驴肉火烧,牛庄路713号,121.476496,31.237395,餐饮服务
850,夸父炸串(新世界城店),南京西路2-68号(南楼)B1层1F23,121.473625,31.234894,餐饮服务
851,Byeable(新世界城店),南京西路2新世界城L5层(人民广场地铁站7号口步行60米),121.473572,31.235432,购物服务
852,L.K.D.L下半身(新世界城店),南京西路2新世界城L5层(人民广场地铁站7号口步行60米),121.473183,31.235232,购物服务
853,星创视光中心,凤阳路与长沙路交叉口东80米,121.473649,31.235131,医疗保健服务
854,nature purest(新世界城店),南京西路2新世界城L8层(人民广场地铁站7号口步行60米),121.473581,31.23533,购物服务
855,至格(恒丰大楼店),江西中路452号恒丰大楼(南京东路地铁站6号口步行390米),121.485243,31.241631,购物服务
856,泰粿曼谷街头美食(爱民弄店),贵州路与天津路交叉口东北20米,121.476332,31.236005,餐饮服务
857,数码篮球(新世界城店),南京西路2新世界城L6层(人民广场地铁站7号口步行60米),121.473572,31.235432,体育休闲服务
858,PACIFIC HOTEL,凤阳路与长沙路交叉口东南100米,121.473281,31.234437,住宿服务
859,Smart(新世界城店),南京西路2新世界城L5层(人民广场地铁站7号口步行60米),121.473561,31.235538,购物服务
860,偶像健身,华隆大厦西北门西南60米(南京东路地铁站6号口步行340米),121.483576,31.241783,体育休闲服务
861,梦想空间第一百货(第一百货商业中心店),梦想空间点播影院第一百货店,121.47511,31.235958,体育休闲服务
862,上海久事艺术沙龙,北京东路230号(南京东路地铁站6号口步行330米),121.486023,31.240734,科教文化服务
863,华侨城苏河湾2号楼,北苏州路470-1016号(天潼路地铁站5号口步行410米),121.481791,31.242049,地名地址信息
864,华侨城苏河湾东区88号院9号,山西北路88弄(天潼路地铁站5号口步行360米),121.481056,31.2414,地名地址信息
865,华侨城苏河湾东区88号院13号,山西北路88弄(天潼路地铁站5号口步行360米),121.481248,31.241961,地名地址信息
866,华侨城苏河湾东区88号院5号,山西北路88弄(天潼路地铁站5号口步行360米),121.481531,31.241794,地名地址信息
867,华侨城苏河湾东区88号院7号,山西北路88弄(天潼路地铁站5号口步行360米),121.481349,31.241652,地名地址信息
868,华侨城苏河湾东区88号院10号,山西北路88弄(天潼路地铁站5号口步行360米),121.480964,31.241328,地名地址信息
869,华侨城苏河湾东区88号院18号,山西北路88弄(天潼路地铁站5号口步行360米),121.480902,31.241746,地名地址信息
870,华侨城苏河湾东区88号院12号,山西北路88弄(天潼路地铁站5号口步行360米),121.481349,31.242047,地名地址信息
871,华侨城苏河湾东区88号院19号,山西北路88弄(天潼路地铁站5号口步行360米),121.480835,31.241678,地名地址信息
872,华侨城苏河湾东区88号院6号,山西北路88弄(天潼路地铁站5号口步行360米),121.481439,31.241733,地名地址信息
873,华侨城苏河湾1号楼,北苏州路470-1016号(天潼路地铁站5号口步行410米),121.481932,31.242136,地名地址信息
874,乐合喜剧(南京路步行街店),南京东路300号恒基名人购物中心L5层,121.483837,31.23765,体育休闲服务
875,璞悦酒店,北京东路与山东北路交叉口东北20米,121.482339,31.240277,住宿服务
876,燃麦科技,香港路117号2楼,121.485588,31.242383,公司企业
877,戴尔客户服务中心(永新广场店),南京西路128号,121.472294,31.233954,生活服务
878,贞唐一梦·捞卤小海鲜(新世界城店),南京西路2-68号新世界城b1F-20号商铺,121.473905,31.235784,餐饮服务
879,Tims天好咖啡(新闸路灵枫店),西藏中路725弄80号(新闸路地铁站6号口步行220米),121.471068,31.239095,餐饮服务
880,翊恺集团,香港路与江西中路交叉口东40米,121.485397,31.242358,公司企业
881,渔相爷,宁波路与天津路170弄交叉口东60米,121.483286,31.23918,餐饮服务
882,美丰大楼,河南中路521-529号,121.483908,31.2393,商务住宅
883,友唱·Bar,凤阳路与长沙路交叉口东80米(人民广场地铁站7号口旁),121.473622,31.23521,体育休闲服务
884,手工面,天津路与天津路170弄交叉口东南60米,121.48348,31.237666,餐饮服务
885,惠为迪科技(上海)有限公司,香港路130号3楼,121.485429,31.24262,公司企业
886,安遇公寓,西藏中路七二五弄南侧(新闸路地铁站6号口步行280米),121.471611,31.238877,住宿服务
887,MovingBean动感豆豆舞蹈运动生活馆(新世界城旗舰店),南京西路2-68号新世界城4楼A-20商铺(天真蓝旁潮玩星球侧对面),121.473739,31.235022,科教文化服务
888,海螺丝商店,南苏州路与山东北路交叉口西南60米,121.481572,31.240272,购物服务
889,日玺公寓(西藏中路七二五弄分店),西藏中路七二五弄水景苑(新闸路地铁站6号口步行170米),121.470647,31.238678,住宿服务
890,7-COFFEE(思源商厦店),西藏中路500号思源商厦,121.474464,31.236614,餐饮服务
891,东成工具(北京东路店),宁波路260号(南京东路地铁站5号口步行270米),121.48218,31.238901,购物服务
892,德雅公寓(南京东路地铁站店),宁波路225号(南京东路地铁站5号口步行200米),121.48304,31.238872,住宿服务
893,鸢尾花公寓(江西中路分店),江西中路恒丰大楼江西中路452号,121.485356,31.241728,住宿服务
894,益普生公司,南京西路128号永新广场F8层,121.472135,31.234147,公司企业
895,光大证券,西藏中路585号新金桥广场F1层,121.472771,31.236933,金融保险服务
896,无印良品餐厅(第一百货商业中心店),瑞金二路街道755号东方商厦3楼,121.474733,31.235147,餐饮服务
897,三只猫三文鱼(北京东路店),北京东路337号(南京东路地铁站6号口步行230米),121.483337,31.240229,餐饮服务
898,小聚生活鸡公煲烤全鱼,北京东路347号(南京东路地铁站6号口步行250米),121.483127,31.24019,餐饮服务
899,金焰食堂市百一店,南京路步行街800号上海市第一百货C馆9楼,121.475312,31.235622,餐饮服务
900,上海波一阀门管件有限公司,厦门路与南苏州路交叉口西南80米,121.477827,31.239689,公司企业
901,CM花园餐厅(滇池小区店),江西中路390号(CM咖啡生活馆),121.485713,31.240486,餐饮服务
902,河滨豪园8号,"北苏州路668号,山西北路9弄",121.479688,31.240836,地名地址信息
903,黄浦区南京东路贵州居委退役军人服务站,北京东路830弄4号,121.474524,31.238043,政府机构及社会团体
904,云中退役军人服务站,贵州路131弄16号(人民广场地铁站19号口步行360米),121.475498,31.236339,政府机构及社会团体
905,上海市黄浦区南京东路街道定兴居委会退役军人服务站,黄河路132弄20号,121.470879,31.235257,政府机构及社会团体
906,黄浦区南京东路街道牛庄路居委退役军人服务站,贵州路208号,121.475786,31.237606,政府机构及社会团体
907,龙泉居委退役军人服务站,浙江中路462号三楼,121.477406,31.237161,政府机构及社会团体
908,上海三忱机电有限公司,厦门路与南苏州路交叉口西南80米,121.477819,31.239695,公司企业
909,上海粤盛电子有限公司,福建中路与南苏州路交叉口西南60米,121.47822,31.239617,公司企业
910,上海欧佩龙电子科技有限公司,厦门路与南苏州路交叉口西南80米,121.477908,31.239505,公司企业
911,扬州市精诚电子有限公司,厦门路与南苏州路交叉口西南80米,121.477827,31.239689,公司企业
912,饭点乐(上海科技京城店),厦门路与浙江中路交叉口东60米,121.477174,31.239604,餐饮服务
913,赛格智造,北京东路668号上海科技京城,121.478233,31.239471,公司企业
914,南洋商业银行ATM,厦门路与南苏州路交叉口西南100米,121.477622,31.239615,金融保险服务
915,上海捷昌机电设备有限公司,厦门路与南苏州路交叉口西南80米,121.477827,31.239689,公司企业
916,泰那斯汽车快速汽车充电站(恒基名人),南京东路155号(南京东路地铁站3号口步行70米),121.483857,31.237741,汽车服务
917,山北居民委员会退役军人服务站,河南中路531弄24号(南京东路地铁站6号口步行140米),121.483153,31.239376,政府机构及社会团体
918,外滩街道宁波居委退役军人服务站,宁波路120弄24号,121.484838,31.240096,政府机构及社会团体
919,德仁里561号楼,广西北路宁波路446弄,121.477155,31.236681,地名地址信息
920,宁波小区6号,宁波路120弄(南京东路地铁站6号口步行60米),121.484737,31.23949,地名地址信息
921,河滨豪园6号,"北苏州路668号,山西北路9弄",121.480087,31.240901,地名地址信息
922,河畔明珠2号,南苏州路877弄1-5号,121.47512,31.240907,地名地址信息
923,宁波小区10号,宁波路120弄(南京东路地铁站6号口步行60米),121.484772,31.23973,地名地址信息
924,河滨豪园10号,"北苏州路668号,山西北路9弄",121.479434,31.240836,地名地址信息
925,宁波小区16号,宁波路120弄(南京东路地铁站6号口步行60米),121.484709,31.239948,地名地址信息
926,宁波小区4号,宁波路120弄(南京东路地铁站6号口步行60米),121.48487,31.239513,地名地址信息
927,宁波小区20号,宁波路120弄(南京东路地铁站6号口步行60米),121.484626,31.240172,地名地址信息
928,Lutra Gallery獭獭画廊,香港路117号6楼,121.48552,31.242439,科教文化服务
929,Atelier Bois博艺欣空间,南苏州路955号103室,121.473186,31.240324,科教文化服务
930,汽车充电站(ZEEKR Power上海雅居乐万豪侯爵酒店超充站),西藏中路555号雅居乐万豪侯爵酒店地下负二层B2012-2017车位,121.472632,31.2365,汽车服务
931,罗森北京东路店东侧何时才有点,北京东路465-467号近山西南路,121.481361,31.239762,医疗保健服务
932,博域教育,浙江中路400号109室,121.478147,31.236196,科教文化服务
933,仲夏夜烛光音乐会,南京东路830号8层B02-F08-1-101(光海茶饮店内),121.474571,31.234918,体育休闲服务
934,MANTO SALON(新世界城店),南京西路2新世界城L8层(人民广场地铁站7号口步行60米),121.473712,31.235024,生活服务
935,speedo(新世界城店),南京西路2新世界城L6层(人民广场地铁站7号口步行60米),121.473592,31.235415,购物服务
936,君苑文化,四川中路与香港路交叉口南40米,121.486108,31.242291,公司企业
937,光明BRIGHT联合办公空间,西藏中路632号(新闸路地铁站6号口步行480米),121.473526,31.238248,公司企业
938,紫泰广告图文,无锡小区东3门旁(南京东路地铁站1号口步行380米),121.48116,31.239398,公司企业
939,Sawrio(新世界城店),凤阳路与长沙路交叉口东80米,121.473581,31.23533,购物服务
940,外滩街道无锡居委退役军人服务站,北无锡路51号,121.480619,31.239021,政府机构及社会团体
941,外滩街道北京居委退役军人服务站,北京东路288弄80号(南京东路地铁站6号口步行440米),121.484302,31.241821,政府机构及社会团体
942,河畔明珠内部地面停车场(出入口),[],121.47523,31.241112,交通设施服务
943,河畔明珠内部地面停车场,[],121.47523,31.241112,交通设施服务
944,光影国风体验馆(第一百货c馆店),南京东路第一百货C馆8层,121.475395,31.235296,体育休闲服务
945,抓娃娃机(百联ZX店),百联zx创趣场6层,121.483234,31.23716,购物服务
946,多美卡(百联ZX店),百联zx创趣场2层,121.483257,31.237123,购物服务
947,gashapon(百联ZX店),百联zx创趣场2层,121.483284,31.237136,购物服务
948,猫受屋(百联ZX店),百联zx创趣场4层,121.483253,31.237133,购物服务
949,东城专业电动工具上海宏纵物资有限公司,北京东路458号(南京东路地铁站1号口步行420米),121.481108,31.239811,公司企业
950,LIAIGRE(华侨城苏河湾店),山西北路77号,121.47981,31.241178,购物服务
951,柠檬向右·手打柠檬茶(南京东路恒基名人广场店),南京东路300号恒基名人广场B110,121.483991,31.237784,餐饮服务
952,IGO AKAKO(新世界城),南京西路2-68号新世界城3楼3c02室(1楼老凤祥电梯直达),121.472978,31.234899,生活服务
953,兰州第一牛肉面(天津路),天津路332号(南京东路地铁站1号口步行370米),121.480085,31.237272,餐饮服务
954,喜汁糷,宁波路与贵州路交叉口西南20米,121.475919,31.236526,餐饮服务
955,Toei Animation东映动画,南京东路340号百联ZX创趣场2层,121.483222,31.237104,购物服务
956,都爱漫(百联ZX店),南京东路340号百联ZX创趣场2层,121.483246,31.237151,购物服务
957,Kuma Toys模玩熊(百联店),南京东路340号百联ZX创趣场2层,121.483245,31.23713,购物服务
958,bandai namco VRZONE(百联店),南京东路340号上海百联ZX6层,121.483181,31.23715,体育休闲服务
959,万代官方扭蛋专卖店,南京东路340号百联ZX创趣场2层,121.483194,31.23714,购物服务
960,HUAWEI华为维修中心(雅戈尔大厦店),南京东路328号,121.483747,31.237316,生活服务
961,SUHE蘇河TEA 518(华侨城苏河湾东区88号院店),北苏州路518号,121.481781,31.241453,餐饮服务
962,茂掌柜柳州螺蛳粉,广西北路与天津路交叉口西北40米,121.476703,31.236316,餐饮服务
963,惠普电脑售后维修中心,天津路180号,121.483039,31.238297,生活服务
964,东京动漫站(百联ZX店),百联zx创趣场2层,121.483222,31.237144,购物服务
965,light darkness(百联ZX店),百联zx创趣场2层,121.483226,31.237146,购物服务
966,comic up(百联ZX店),百联zx创趣场3层,121.483202,31.237178,购物服务
967,PICO上海苏河湾万象天地体验店,福建北路万象天地西里负二层LG237,121.478457,31.242029,体育休闲服务
968,桂里桂外·老桂林米粉,宁波路与天津路170弄交叉口东60米,121.483207,31.239163,餐饮服务
969,DF Beauty Salon,西藏中路与凤阳路交叉口东南60米,121.474408,31.235788,生活服务
970,福利彩票,宁波路与山西南路交叉口东北20米,121.481729,31.238732,生活服务
971,珺彤,北苏州路512号,121.481883,31.241527,公司企业
972,京东手机手机服务站(新世界城店),凤阳路与长沙路交叉口东80米,121.473649,31.235131,生活服务
973,连江商会,凤阳路与长沙路交叉口东60米(人民广场地铁站7号口旁),121.473391,31.235069,政府机构及社会团体
974,迷岛(恒基名人购物中心),南京东路300号恒基名人购物中心B1层B117,121.483782,31.238173,体育休闲服务
975,科尼赛克锐马克中国品牌展厅(华侨城苏河湾东区88号院店),山西北路88弄华侨城苏河湾东区88号院,121.481538,31.242559,购物服务
976,TIDE COFFEE蓝曼咖啡,河南中路与北京东路交叉口南60米,121.483772,31.239897,餐饮服务
977,可鱼可饭,牛庄路与云南北路交叉口东20米,121.47538,31.236941,餐饮服务
978,台州海鲜楼,香港路与四川中路交叉口西60米,121.485524,31.242629,餐饮服务
979,疆小骆,贵州路与天津路交叉口西北20米,121.476136,31.235947,餐饮服务
980,威可多(新世界城店),凤阳路与长沙路交叉口东80米,121.473581,31.23533,购物服务
981,圓滿·艺术空间·DIY手作·tufting·流体暴力熊,六合路与南京路步行街交叉口西北40米,121.47495,31.23512,科教文化服务
982,吉祥里30号楼,河南中路541弄,121.483103,31.239588,地名地址信息
983,宁波小区3号楼,宁波路120弄,121.484882,31.239508,地名地址信息
984,蓝月的娃娃屋(百联ZX店),南京东路340号百联ZX3楼,121.483282,31.237146,购物服务
985,市井婆(新世界城店),南京西路2新世界城B1层,121.473649,31.235131,餐饮服务
986,《沪居》外滩、南京路、人民广场、城隍庙、地铁,上海上海黄浦浙江中路433号201室,121.477425,31.236595,住宿服务
987,LD烫染salon,六合路与凤阳路交叉口西南40米,121.474602,31.236,生活服务
988,鸢尾花南民宿(外滩1号店),上海上海黄浦北京东路378号206室,121.482745,31.240456,住宿服务
989,红烧牛肉面(三和里店),江西中路412弄1-51号三和里,121.485449,31.24108,餐饮服务
990,极简空间民宿(外滩1号店),上海上海黄浦宁波路74弄11号302,121.485564,31.239537,住宿服务
991,鸢尾花南民宿,上海上海黄浦云中小区贵州路133号202房,121.476075,31.236348,住宿服务
992,大范的房子民宿(外滩1号店),上海上海黄浦江西中路304号202室,121.48646,31.238346,住宿服务
993,辛木AGIONE民宿,天津路195弄11号东风小区东区,121.48259,31.238281,住宿服务
994,鸢尾花南民宿(外滩2号店),上海上海黄浦北京东路378号311室,121.482745,31.240456,住宿服务
995,简舍i客栈(北京东路2号分店),上海上海黄浦北京东路378号312室,121.482735,31.240509,住宿服务
996,IQAir(万象天地店),上海苏河湾万象天地LG175,121.479359,31.242137,购物服务
997,上海张境餐饮管理有限公司,宁波路与天津路170弄交叉口东20米,121.482868,31.238958,公司企业
998,张玲玲民宿(人民广场1号店),南京路街道浙江中路433号,121.477786,31.236477,住宿服务
999,瑞达期货,南京西路128号永新广场F8层,121.472135,31.234147,金融保险服务
1000,MegaHouse,百联ZX创趣场1层,121.483193,31.237103,购物服务
1001,淞卢艺术空间,三泰路与山西北路交叉口东100米,121.48161,31.241607,科教文化服务
1002,久事苏州河四行仓库码头,双拥公园对面,121.469244,31.23957,交通设施服务
1003,天闻角川特约授权店,南京东路340号华联商厦(南京东路店),121.483384,31.237136,购物服务
1004,海门最初酒吧,南京路步行街与山东中路交叉口北60米,121.484002,31.237779,体育休闲服务
1005,粉香婆,宁波路与贵州路交叉口东20米,121.476116,31.236577,餐饮服务
1006,古法胡椒饼,天津路与天津路170弄交叉口南20米,121.483233,31.238057,餐饮服务
1007,雾雨咖啡店,云南北路18号(人民广场地铁站19号口步行390米),121.475324,31.236751,餐饮服务
1008,苏小柳点心新世界分院(新世界城店),南京西路新世界城B1,121.473413,31.235005,餐饮服务
1009,星之健身西藏中路店,南苏州路1015号5楼,121.471014,31.239063,体育休闲服务
1010,读者·苏河文化空间,南苏州路1015号2楼(新闸路地铁站6号口步行200米),121.471022,31.238923,科教文化服务
1011,Pink Nail女王美甲美睫(新世界城店),凤阳路与长沙路交叉口东南80米(人民广场地铁站7号口旁),121.473465,31.23488,生活服务
1012,上海国泰君安证券资产管理有限公司,南苏州路与河南中路辅路交叉口东20米,121.483545,31.241657,金融保险服务
1013,玉兰堂(上海店),北苏州路490号,121.482086,31.241984,科教文化服务
1014,KENELE STAND,南京东路340-372号百联ZX,121.483351,31.237178,购物服务
1015,沉浸式音乐会-博拉图格文化,北京东路与贵州路交叉口东北40米,121.475661,31.238518,体育休闲服务
1016,洗手间,北苏州路与福建北路交叉口西北120米,121.477942,31.241641,公共设施
1017,老师傅钟表维修,天津路与天津路170弄交叉口东南40米,121.483381,31.237789,生活服务
1018,大海快餐店,宁波路与山西南路交叉口东20米,121.481785,31.238649,餐饮服务
1019,招财猫民宿(外滩3号店),江西中路412弄三和里(南京东路地铁站6号口步行320米),121.485502,31.241041,住宿服务
1020,智合进修学院,北京东路与顾家弄交叉口北100米,121.477659,31.23951,科教文化服务
1021,lann(上海世茂广场店),西藏中路与南京西路交叉口西北80米,121.474027,31.235228,生活服务
1022,BOSS LOUNG茶馆(天潼路店),南苏州路333号华隆大厦一楼,121.484024,31.241895,体育休闲服务
1023,大笑脱口秀俱乐部-人民广场店,六合路与凤阳路交叉口西南40米,121.474603,31.235947,体育休闲服务
1024,中国人寿,景云大楼北京东路398号3楼,121.482643,31.240548,金融保险服务
1025,伊殿宝贝(雅居乐国际广场店),西藏中路525号雅居乐国际广场2FE01E03E05办公室,121.473092,31.236161,购物服务
1026,BDWAY小剧场,第一百货C馆7层星空间662号,121.475259,31.235608,体育休闲服务
1027,招财猫民宿(外滩2号店),北京东路江西中路412弄19号三和里,121.485914,31.241397,住宿服务
1028,大骨熬汤(新世界城店),凤阳路与长沙路交叉口东80米,121.473649,31.235131,餐饮服务
1029,招财猫民宿(外滩4号店),江西中路412弄19号三和里,121.485506,31.241039,住宿服务
1030,追星馆(百联ZX店),南京路步行街与山东中路交叉口西80米,121.48315,31.237216,购物服务
1031,ZX创趣场,南京路步行街与山东中路交叉口西80米,121.483178,31.237088,购物服务
1032,陕聚客陕西面馆,宁波路与天津路170弄交叉口东40米,121.483123,31.239142,餐饮服务
1033,大骨牛肉汤面,香港路与四川中路交叉口西南20米,121.485966,31.242573,餐饮服务
1034,黄浦区外滩街道可回收物中转站,五福弄与天津路交叉口西北20米,121.481028,31.237544,生活服务
1035,柏金(新世界城店),南京西路2新世界城L3层(人民广场地铁站7号口步行60米),121.473649,31.235131,生活服务
1036,海德堡彩色印刷(满春坊店),天津路与石潭弄交叉口东北20米,121.480412,31.237345,生活服务
1037,滴水(新世界城店),凤阳路与长沙路交叉口东80米,121.473581,31.23533,购物服务
1038,天赐良鸡(恒基名人购物中心店),南京东路300号恒基名人购物中心B1层,121.483972,31.237798,餐饮服务
1039,萝春阁,贵州路105号,121.476175,31.236026,餐饮服务
1040,百时益医药研发有限公司上海分公司,天津路155号恒基名人大厦1101室,121.484034,31.237886,公司企业
1041,中丝亚太有限公司,龙泉园路与天津路交叉口南60米,121.478814,31.236127,公司企业
1042,万代魂(上海旗舰店),南京东路340-372号百联ZX(南京东路地铁站1号口旁),121.48333,31.23714,购物服务
1043,布偶夹(百联ZX店),南京东路340-372号F06层B72-01F06-01-0002,121.483303,31.237214,体育休闲服务
1044,哥斯拉(百联ZX店),南京路步行街与山东中路交叉口西60米,121.483388,31.23735,体育休闲服务
1045,秋叶原(百联ZX店),南京路步行街与山东中路交叉口西80米,121.483241,31.237254,体育休闲服务
1046,摩多摩多(百联ZX店),南京路步行街与山东中路交叉口西80米,121.483241,31.237254,购物服务
1047,动物星球(百联ZX店),南京路步行街与山东中路交叉口西60米,121.483305,31.237154,购物服务
1048,VBP普拉提(人民广场店),南苏州路933号怡水豪庭2501室,121.474766,31.240636,体育休闲服务
1049,眷三张·中华卤肉饭(新世界城店),凤阳路与长沙路交叉口东60米(人民广场地铁站7号口旁),121.473565,31.235172,餐饮服务
1050,COMIPLUS(百联ZX店),南京东路340号百联ZX3层,121.483235,31.237141,购物服务
1051,小桔充电汽车充电站(BP快速充电站上海第一百货商店),第一百货(人民广场地铁站19号口步行250米)地下停车场B3,121.474629,31.235917,汽车服务
1052,你好浣熊君(上海苏河湾万象天地店),福建北路100号上海苏河湾万象天地B2层,121.478498,31.241899,生活服务
1053,HYDAELYN CAFE(新世界大丸百货店),天津路与江西中路交叉口西南40米,121.485839,31.238859,餐饮服务
1054,零距离家园,西藏中路七二五弄50号,121.470999,31.239069,政府机构及社会团体
1055,中国融通财产保险有限公司,江西中路与北京东路交叉口西北20米,121.485385,31.240708,金融保险服务
1056,总院院区,北京东路与河南中路辅路交叉口西40米,121.483191,31.240477,医疗保健服务
1057,MANTO BEAUTY SALON(新世界城店),南京西路2新世界城L4层(人民广场地铁站7号口步行60米),121.47347,31.235246,生活服务
1058,汇善金服,北京东路668号上海科技京城西楼12G,121.477134,31.238973,金融保险服务
1059,VR GALAGA FEVER(百联ZX店),南京路步行街与山东中路交叉口西60米,121.483388,31.23735,体育休闲服务
1060,上海好饭服饰有限公司,北苏州路与文安路交叉口东南80米,121.473754,31.24054,公司企业
1061,上海新世界丽笙大酒店-糕饼美食屋,凤阳路与长沙路交叉口东南100米,121.473188,31.234481,餐饮服务
1062,AVANT-GARDE SKINCARE(新世界城店),凤阳路与长沙路交叉口东80米,121.473572,31.235432,购物服务
1063,守映里·点播影院(第一百货商业中心B馆店),上海第一百货商业中心B馆8楼(电影院旁边),121.47429,31.235915,体育休闲服务
1064,FF CLUB酒吧,南京路步行街与山东中路交叉口北60米,121.484192,31.237739,体育休闲服务
1065,索尼相机售后维修中心,天津路238号,121.481732,31.237858,生活服务
1066,华东师范大学继续教育学院,南京东路街道天津路158号,121.483275,31.238328,科教文化服务
1067,六六棋牌,牯岭路175号(新闸路地铁站6号口步行290米),121.470669,31.235706,体育休闲服务
1068,怂奶茶车间(上海苏河湾万象天地店),福建北路100号上海苏河湾万象天地B1层,121.478498,31.241899,餐饮服务
1069,萃祥坊,宁波路与顾家弄交叉口东北60米,121.478745,31.237507,商务住宅
1070,河滨豪园,"北苏州路668号,山西北路9弄",121.47987,31.240767,商务住宅
1071,瑞康里,贵州路与北京东路交叉口西北100米,121.474595,31.238622,商务住宅
1072,华侨城苏河湾东区88号院17号,山西北路88弄(天潼路地铁站5号口步行360米),121.481026,31.241772,地名地址信息
1073,积福里,宁波路457弄1-8号(南京东路地铁站1号口步行490米),121.479088,31.237251,商务住宅
1074,华侨城苏河湾东区88号院15号,山西北路88弄(天潼路地铁站5号口步行360米),121.481166,31.2419,地名地址信息
1075,华侨城苏河湾东区88号院11号,山西北路88弄(天潼路地铁站5号口步行360米),121.48086,31.241194,地名地址信息
1076,余庆里,温州路与北京西路交叉口西北60米,121.470059,31.236747,商务住宅
1077,华侨城苏河湾东区88号院T3号楼,山西北路88弄(天潼路地铁站5号口步行360米),121.480988,31.241908,地名地址信息
1078,华侨城苏河湾东区88号院3号,山西北路88弄(天潼路地铁站5号口步行360米),121.481704,31.241956,地名地址信息
1079,华侨城苏河湾东区88号院16号,山西北路88弄(天潼路地铁站5号口步行360米),121.481091,31.24183,地名地址信息
1080,华侨城苏河湾东区88号院8号,山西北路88弄(天潼路地铁站5号口步行360米),121.481254,31.241563,地名地址信息
1081,华侨城苏河湾东区88号院T2号楼,山西北路88弄(天潼路地铁站5号口步行360米),121.481128,31.242428,地名地址信息
1082,库迪咖啡(新世界城店),南京西路2-68号新世界城地下2层,121.475964,31.235583,餐饮服务
1083,状元面馆,宁波路204号(南京东路地铁站6号口步行130米),121.483241,31.239174,餐饮服务
1084,韩炽韩国料理烤肉,宁波路与山东北路交叉口东北40米,121.483113,31.239216,餐饮服务
1085,Kuma Toys模玩熊卡牌店(百联店),南京东路百联ZX创6楼(南京东路地铁站1号口旁),121.483328,31.237202,购物服务
1086,南京东路派出所定兴社区警务室,定兴路与黄河路交叉口东北40米,121.470853,31.235163,政府机构及社会团体
1087,上海建工食堂,厦门路与浙江中路交叉口东北40米,121.476979,31.240041,餐饮服务
1088,投资基金,南京东路300号恒基名人购物中心L2层,121.484034,31.237886,金融保险服务
1089,宽巷子铜锅鱼(新世界城店),南京西路2新世界城B1层,121.47352,31.235059,餐饮服务
1090,米糅ME ROLL PHO越南米粉(第一百货),南京东路830号第一百货商业中心B馆F4层,121.474594,31.235818,餐饮服务
1091,人保财险,江西中路与香港路交叉口西20米,121.48472,31.242308,金融保险服务
1092,狄俄尼索斯剧场(第一百货c馆店),南京东路800号第一百货c馆F7层,121.475285,31.235629,体育休闲服务
1093,晴空小屋二次元桌游馆(港陆黄浦中心店),奉贤区港陆黄浦中心10C,121.474994,31.236639,体育休闲服务
1094,悠乐公寓(上海苏河店),南苏州路933号怡水豪庭,121.474506,31.24082,住宿服务
1095,上海洗染业行业协会,云南北路59号(六合大厦)1309室,121.474869,31.237175,政府机构及社会团体
1096,海神捞汁小海鲜,北京西路171号,121.470477,31.236167,餐饮服务
1097,德兴里,牛庄路与贵州路交叉口东20米,121.476169,31.237203,商务住宅
1098,云吉纳餐厅(第一百货c馆店),南京东路800号第一百货c馆F8层,121.475285,31.235629,餐饮服务
1099,塔斯汀中国汉堡(南京路店),宁波路619号-12号商铺,121.476011,31.236512,餐饮服务
1100,枝色玉兰堂画廊餐吧(华侨城苏河湾东区88号院店),北苏州路与河南北路辅路交叉口西60米,121.482092,31.241993,餐饮服务
1101,叁柒电玩·桌游·PS5·SWITCH,天津路66号百空间1楼F106室,121.484979,31.238699,体育休闲服务
1102,星空阁,广西北路与宁波路交叉口西北20米,121.476566,31.236784,商务住宅
1103,求婚钻戒(新世界城店),凤阳路与长沙路交叉口东80米,121.473594,31.23529,购物服务
1104,手工虾滑(第一百货c馆店),南京东路800号第一百货c馆,121.475628,31.235236,餐饮服务
1105,星巴克(第一百货商业中心C馆4F),南京东路800号4楼B02-F04-1-305室,121.475204,31.235972,餐饮服务
1106,洪溪社HOMEME(万象天地店),福建北路100号LG2层LG271,121.479261,31.242384,餐饮服务
1107,上海沁魄足球俱乐部有限公司,北京东路与山东北路交叉口东北40米,121.482441,31.240372,公司企业
1108,CM(滇池小区店),江西中路374号滇池小区(南京东路地铁站6号口步行260米),121.485709,31.240443,购物服务
1109,弄堂川菜,贵州路204号(近牛庄路),121.475836,31.237465,餐饮服务
1110,艺术门画廊,香港路 117 号 203 室,121.485658,31.242328,科教文化服务
1111,天臣电玩,宁波路与江西中路交叉口西60米,121.485228,31.239511,体育休闲服务
1112,Cola-pie(新世界城店),上海南京西路2-68号,121.47372,31.235118,购物服务
1113,鸢尾花南民宿(外滩3号店),上海上海黄浦江西中路452号427室,121.485206,31.241623,住宿服务
1114,宁波路284弄8号楼,宁波路与山西南路交叉口东北40米,121.481663,31.239142,地名地址信息
1115,东风小区东区2号楼,天津路195弄,121.482447,31.23781,地名地址信息
1116,宁波路284弄22号楼,宁波路与山西南路交叉口东北40米,121.481863,31.239154,地名地址信息
1117,新一百大厦A座,六合路58号(人民广场地铁站19号口步行280米),121.475202,31.235873,地名地址信息
1118,继续教育学院黄浦明德教学点,南苏州路333号(南京东路地铁站6号口步行430米),121.484019,31.241943,科教文化服务
1119,烧鹅快点·烧腊专门店,南京西路与西藏中路交叉口西南80米(人民广场地铁站7号口旁),121.473633,31.234262,餐饮服务
1120,赤龙牛杂(南京东路店),贵州路115号(人民广场地铁站19号口步行390米),121.476131,31.236167,餐饮服务
1121,黄浦区信贷签约中心,北京东路668号西楼,121.47727,31.239024,金融保险服务
1122,国寓公寓老吴(北外滩4号店),上海上海虹口国寓酒店公寓(北外滩店)2-2,121.479895,31.237207,住宿服务
1123,吴茂兴本帮面,牛庄路697-1.697-2号,121.47669,31.237478,餐饮服务
1124,胡子大厨(新世界城店)(装修中),南京西路2-68号新世界城B1层24号,121.473894,31.234881,餐饮服务
1125,简舍I民宿(人民广场4号店),上海上海黄浦浙江中路419号公房412室,121.477615,31.236478,住宿服务
1126,派总·叁生猫舍(万象天地店),福建北路100号苏河湾万象天地LG2层LG287,121.479267,31.242358,购物服务
1127,沪所民宿(人民广场3号店),外滩街道广东路339(南京东路地铁站1号口步行330米),121.48106,31.238377,住宿服务
1128,学历提升中心·明德教学处,南苏州路333号(南京东路地铁站6号口步行310米),121.483654,31.24174,科教文化服务
1129,PrismLand cafe(上海店),南京东路830号第一百货商业中心B馆5层,121.474809,31.235669,体育休闲服务
1130,勒次冒火·特色泡椒米线,宁波路605号(人民广场地铁站19号口步行440米),121.476159,31.236568,餐饮服务
1131,华硕电脑售后维修中心,西藏中路728号,121.473142,31.239809,生活服务
1132,亚祖空间,南京西路2新世界城L4层(人民广场地铁站7号口旁),121.473694,31.235004,生活服务
1133,海风拂面(人广店),贵州路与天津路交叉口北20米,121.476315,31.23604,餐饮服务
1134,金小斩,天津路与龙泉园路交叉口东20米,121.47876,31.236633,餐饮服务
1135,上海科特满口腔,凤阳路与白河路交叉口西南20米,121.471907,31.234682,医疗保健服务
1136,新世界篮球羽毛球培训机构,西藏中路与南京西路交叉口西北60米,121.473896,31.234918,科教文化服务
1137,上海鼎盛骏诚信息科技有限公司,天津路与天津路170弄交叉口西20米,121.483076,31.238219,公司企业
1138,金会长朝鲜族风味烤肉(人民广场店),南京东路街道六合路98号104单元,121.474879,31.236418,餐饮服务
1139,东风小区东区天津路195弄,山西南路与天津路交叉口东南80米,121.482661,31.237493,商务住宅
1140,东风小区西区,天津路与五福弄交叉口东南40米,121.481442,31.237238,商务住宅
1141,东风小区东区天津路179弄,天津路与天津路170弄交叉口西南60米,121.482981,31.237659,商务住宅
1142,第一百货·星空间,第一百货商业中心商场C馆7层,121.47529,31.235604,体育休闲服务
1143,上海星际之旅航天艺术展,南京东路第一百货B馆四楼007号,121.47481,31.23593,科教文化服务
1144,温州路北京西路(下客站)(公交站),136路,121.470078,31.237308,交通设施服务
1145,新闸路温州路(公交站),136路;210路,121.469676,31.238487,交通设施服务
1146,北京东路江西中路(公交站),21路,121.484108,31.240534,交通设施服务
1147,北京西路西藏中路(公交站),15路;21路;315路,121.470909,31.236431,交通设施服务
1148,北京东路福建中路(公交站),19路;21路;316路/316路(夜宵线);64路,121.478533,31.238915,交通设施服务
1149,天津路河南中路(公交站),330路;37路,121.483757,31.238382,交通设施服务
1150,天津路福建中路(公交站),330路;37路,121.478783,31.236736,交通设施服务
1151,西藏中路北京东路(公交站),108路;108路区间;18路;312路;318路;46路;51路;537路;930路;E乘巴士005路,121.473831,31.236818,交通设施服务
1152,长沙路北京西路(公交站),15路;19路;316路/316路(夜宵线);64路,121.471469,31.237592,交通设施服务
1153,新闸路西藏中路(公交站),19路;316路/316路(夜宵线);64路,121.471541,31.238161,交通设施服务
1154,南京东路(地铁站),10号线;2号线,121.484628,31.238101,交通设施服务
1155,福建中路北京东路(公交站),14路,121.479427,31.238194,交通设施服务
1156,北京东路山东北路(公交站),14路;19路;64路,121.481951,31.240041,交通设施服务
1157,浙江中路北京东路(公交站),14路,121.476623,31.239197,交通设施服务
1158,北京东路河南中路(公交站),19路;64路,121.482537,31.24023,交通设施服务
1159,杜莎夫人蜡像馆(公交站),都市观光旅游1线,121.473541,31.234419,交通设施服务
1160,南京路步行街东侧(公交站),都市观光旅游1线,121.484818,31.238012,交通设施服务
1161,北京东路四川中路(公交站),220路;330路;37路,121.485176,31.240561,交通设施服务
1162,五卅运动纪念碑站(公交站),建筑可阅读专线;红色旅游巴士专线,121.472749,31.234126,交通设施服务
1163,人民广场地铁站出入口,2号线,121.47352,31.234606,交通设施服务
1164,南京东路地铁站6号口,10号线,121.484523,31.239104,交通设施服务
1165,南京东路地铁站2号口,10号线;2号线,121.484582,31.237807,交通设施服务
1166,南京东路地铁站7号口,10号线,121.484935,31.238202,交通设施服务
1167,南京东路地铁站5号口,10号线,121.484311,31.238335,交通设施服务
1168,山西南路,黄浦区,121.482052,31.237709,地名地址信息
1169,云南北路,黄浦区,121.47505,31.237417,地名地址信息
1170,芝罘路,黄浦区,121.475859,31.237755,地名地址信息
1171,江西中路,黄浦区,121.485704,31.240113,地名地址信息
1172,香粉弄,黄浦区,121.478508,31.236114,地名地址信息
1173,北无锡路,黄浦区,121.481025,31.23908,地名地址信息
1174,香港路,黄浦区,121.485486,31.24248,地名地址信息
1175,北苏州路,静安区,121.478254,31.241024,地名地址信息
1176,宁波路,黄浦区,121.485612,31.239449,地名地址信息
1177,龙泉园路,黄浦区,121.478657,31.236441,地名地址信息
1178,顾家弄,黄浦区,121.477668,31.238654,地名地址信息
1179,新菜场路,黄浦区,121.47951,31.239842,地名地址信息
1180,南无锡路,黄浦区,121.480426,31.238599,地名地址信息
1181,西藏中路七二五弄,黄浦区,121.471658,31.239015,地名地址信息
1182,新闸路,黄浦区,121.46964,31.238495,地名地址信息
1183,贵州路,黄浦区,121.475906,31.237105,地名地址信息
1184,三泰路,静安区,121.480638,31.241385,地名地址信息
1185,天津路170弄,黄浦区,121.482983,31.238544,地名地址信息
1186,河南北路,黄浦区,121.483406,31.241337,地名地址信息
1187,上海新世界丽笙大酒店,南京西路88号,121.472888,31.234699,住宿服务
1188,新一百大厦,六合路58号(人民广场地铁站19号口步行280米),121.475169,31.236016,商务住宅
1189,浦发银行(黄浦支行),宁波路50号(近江西中路),121.486101,31.239688,金融保险服务
1190,浦发银行(住业大厦支行),北京西路99号住业大厦F1层,121.470822,31.236249,金融保险服务
1191,红光心理咨询中心,北京西路130号二楼(新闸路地铁站6号口步行310米),121.471155,31.236733,医疗保健服务
1192,中国邮政储蓄银行(福建路支行),福建中路414号(南京东路地铁站1号口步行430米),121.479893,31.237273,金融保险服务
1193,外滩街道办事处,山西南路350号上海物资大厦12-13层,121.481278,31.239472,政府机构及社会团体
1194,金门大酒店,南京西路108号(人民广场地铁站8号口步行130米),121.472543,31.23427,住宿服务
1195,上海富基电气有限公司,香港路120号,121.485799,31.242677,公司企业
1196,上海栋流旭广告传播有限公司,山西南路350号上海物资大厦802,121.481432,31.239541,公司企业
1197,滇池小区,江西中路374号(南京东路地铁站6号口步行220米),121.48597,31.240293,商务住宅
1198,上海市废弃物管理处,北京东路356号国华大楼7-8层,121.483266,31.240589,政府机构及社会团体
1199,上海良弘宾馆,福建中路429号(南京东路地铁站1号口步行450米),121.479578,31.237388,住宿服务
1200,上海市电力行业协会,北京东路239号(南京东路地铁站6号口步行260米),121.485512,31.240442,政府机构及社会团体
1201,弘源商务楼,山东北路14号(南京东路地铁站6号口步行200米),121.482748,31.239165,商务住宅
1202,上海万强贸易有限公司,云南北路59六合大厦5层,121.474795,31.237193,公司企业
1203,安信堆场,山西南路350号上海物资大厦1902,121.481432,31.239541,公司企业
1204,长新大楼,新闸路200号(新闸路地铁站6号口步行70米),121.469834,31.23869,商务住宅
1205,东银大厦,牛庄路658号,121.477366,31.238151,商务住宅
1206,春申江大厦,浙江中路398-400号,121.478198,31.236107,商务住宅
1207,上海电子商厦总公司,山西南路350号上海物资大厦1402,121.481432,31.239541,公司企业
1208,上海市体育总会,南京西路150号体育大厦F1层,121.471922,31.233673,政府机构及社会团体
1209,中国大戏院,牛庄路704号,121.47646,31.237505,体育休闲服务
1210,华茂饭店(定兴路店),定兴路28号白河路交叉口,121.47108,31.235166,餐饮服务
1211,华通广告(宁波路),宁波路456弄3-23号萃祥坊,121.478679,31.237432,生活服务
1212,上海第一百货资源开发有限公司,新闸路200长新大楼(新闸路地铁站6号口步行70米),121.469906,31.238621,公司企业
1213,上海劳动保护用品商店有限公司,江西中路457号2层(南京东路地铁站6号口步行430米),121.484973,31.24191,公司企业
1214,青青美发屋(协和里店),定兴路22号对面(人民广场地铁站8号口步行370米),121.470984,31.235112,生活服务
1215,上海华东房产物业有限公司,河南中路505号华东商务楼(南京东路地铁站6号口步行80米),121.484149,31.23891,公司企业
1216,河畔明珠,南苏州路877弄1-5号,121.475264,31.240777,商务住宅
1217,上海路有电器成套公司,山西南路350号上海物资大厦909,121.480898,31.239803,公司企业
1218,上海市住房制度改革办公室,北京西路95号房地大厦F1层,121.471294,31.236363,政府机构及社会团体
1219,六合大厦(云南北路),云南北路59号(人民广场地铁站19号口步行430米),121.474806,31.237166,商务住宅
1220,上海华通机电(集团)有限公司,牛庄路583-2号(南京东路地铁站1号口步行430米),121.480187,31.238289,购物服务
1221,新光影艺苑,宁波路586号(人民广场地铁站19号口步行480米),121.476551,31.236793,体育休闲服务
1222,上海南部精机机械有限公司,山西南路350号上海物资大厦1407,121.481432,31.239541,公司企业
1223,上海冠登贸易有限公司,云南北路59六合大厦8层,121.474795,31.237193,公司企业
1224,上海开达照明有限公司,云南北路59六合大厦3层,121.474795,31.237193,公司企业
1225,上海市黄浦区老干部大学,天津路399号(南京东路地铁站4号口步行490米),121.479046,31.236656,科教文化服务
1226,黄浦剧场,北京东路780号,121.475639,31.238464,体育休闲服务
1227,上海国宝生物工程研究所,天津路180号应氏大厦F1层,121.482924,31.23822,科教文化服务
1228,外经贸商务楼,宁波路225号(南京东路地铁站5号口步行210米),121.482903,31.238912,商务住宅
1229,耀山美容美发院,江西中路457号(南京东路地铁站6号口步行440米),121.484975,31.241966,生活服务
1230,港陆黄浦中心,六合路98号(人民广场地铁站19号口步行330米),121.475007,31.236587,商务住宅
1231,东亚联合控股(集团)有限公司,南苏州路381-1号(南京东路地铁站6号口步行340米),121.483554,31.241764,公司企业
1232,上海小吃(南京东路店),南京东路步行街414号美特斯邦威对面,121.482243,31.237031,餐饮服务
1233,安基商厦,广西北路528号,121.476424,31.238142,商务住宅
1234,上海市供水行业协会(江西中路),江西中路484号(南京东路地铁站6号口步行480米),121.484982,31.242419,政府机构及社会团体
1235,海连国际货运公司,北京东路668号北京东路东楼,121.478411,31.239317,生活服务
1236,可的便利店(香港店),四川中路641号,121.486003,31.242559,购物服务
1237,上海梅兰电器(集团)有限公司工会,西藏中路725弄12号梅兰梅日广场,121.472168,31.239417,政府机构及社会团体
1238,上海蔡同德药品连锁有限公司,西藏中路725弄35号(新闸路地铁站6号口步行290米),121.471712,31.238923,公司企业
1239,上海春日置业有限公司,浙江中路398-400号春申江大厦8层801,121.478247,31.236244,公司企业
1240,上海达益物业发展有限公司(暂停营业),北京东路378号景云大楼F6层,121.482785,31.240367,公司企业
1241,白荣餐厅,山西南路322号(南京东路地铁站1号口步行350米),121.48142,31.239144,餐饮服务
1242,福兴烟杂店(牯岭路),牯岭路141号(新闸路地铁站6号口步行340米),121.47126,31.235997,购物服务
1243,新世界股份有限公司,南京西路2号-88号,121.473183,31.235232,购物服务
1244,上海星辉机械设备公司黄浦分公司,北京东路464号(南京东路地铁站6号口步行410米),121.481263,31.239922,购物服务
1245,鑫龙实业(福瑞小区店),新闸路125号(新闸路地铁站6号口步行160米),121.47093,31.238116,购物服务
1246,上海服装鞋帽商业行业协会,香港路111号凯恩商务楼404、332B,121.48574,31.242437,政府机构及社会团体
1247,松茂电器,福建中路455号(南京东路地铁站1号口步行490米),121.479509,31.237823,购物服务
1248,魏德米勒上海永维电器有限公司,香港路111号凯恩商务楼201,121.48574,31.242437,公司企业
1249,味千三代目(新世界城店),南京西路2-68号南楼9F-16室(人民广场地铁站7号口旁),121.473554,31.235076,餐饮服务
1250,宝龙大酒楼(江西中路),北京东路230号(南京东路地铁站6号口步行310米),121.485849,31.240897,餐饮服务
1251,上海市口腔病防治院,北京东路356号国华大楼2层,121.483255,31.240513,医疗保健服务
1252,上海一佳机械有限公司,西藏中路728号美欣大厦F18层,121.473008,31.23978,公司企业
1253,上海盛源时代航空旅行社有限公司,北京东路668号科技京城东座7楼,121.478415,31.239324,生活服务
1254,奥维科雅阀门(上海)有限公司,北京东路668号上海科技京城东楼7层,121.478415,31.239324,公司企业
1255,上海杜莎夫人蜡像馆,南京西路2-68号10楼,121.473346,31.23466,科教文化服务
1256,上海恒吉电子有限公司,福建中路567号上海科技京城C区C327,121.478324,31.239715,公司企业
1257,上海华宇飞凌包装机械有限公司,西藏中路728号美欣大厦F1层,121.473008,31.23978,公司企业
1258,明达家政服务社(江西中路店),江西中路372弄1号(南京东路地铁站6号口步行200米),121.485901,31.239955,生活服务
1259,上海泰克网络实验室,云南北路59六合大厦8层,121.474795,31.237193,科教文化服务
1260,上海寅寅机电设备有限公司,北京东路480号(南京东路地铁站1号口步行420米),121.480949,31.239835,购物服务
1261,上海纪嘉贸易有限公司,西藏中路728号美欣大厦(曲阜路地铁站2号口步行410米),121.473008,31.23978,公司企业
1262,Ingenor,浙江中路398-400号春申江大厦7层709,121.478247,31.236244,公司企业
1263,百联集团(南苏州路),南苏州路325号(南京东路地铁站6号口步行450米),121.48439,31.242518,公司企业
1264,北京市光华机电有限公司上海办,西藏中路728号美欣大厦9层911-913,121.473008,31.23978,公司企业
1265,上海都市假日酒店(天津店),天津路293号(南京东路地铁站1号口步行310米),121.480953,31.237194,住宿服务
1266,丰业大楼,天津路238号(南京东路地铁站1号口步行230米),121.481639,31.237784,商务住宅
1267,凤凰电力设备有限公司,福建中路433号(南京东路地铁站1号口步行460米),121.479602,31.237505,购物服务
1268,光宇电缆销售部(无锡小区店),宁波路320号西间(南京东路地铁站1号口步行330米),121.48114,31.238567,购物服务
1269,鸿鹄面馆,牛庄路705号,121.476681,31.237493,餐饮服务
1270,集成,天津路与天津路170弄交叉口东北40米,121.48346,31.238432,购物服务
1271,佳乐干洗店(山西南路),山西南路304号(南京东路地铁站1号口步行320米),121.481552,31.238944,生活服务
1272,上海捷翼电子经营部,北京东路668号上海科技京城东楼19层,121.478415,31.239324,公司企业
1273,金蓝风机(宁波路店),山西南路349弄9-11号无锡小区,121.479783,31.238224,购物服务
1274,昆山旭荣纺织企业有限公司(西藏中路),西藏中路728号美欣大厦F1层,121.473008,31.23978,公司企业
1275,上海利道软件有限公司,北京东路668号上海科技京城东楼9层,121.478415,31.239324,公司企业
1276,菱重叉车(上海)有限公司,西藏中路728号美欣大厦F23层,121.473008,31.23978,汽车服务
1277,上海琴展机电设备有限公司,宁波路402号(南京东路地铁站1号口步行480米),121.479622,31.238208,公司企业
1278,美国鲍特维里投资有限公司,北京东路668号上海科技京城东楼8层,121.478415,31.239324,金融保险服务
1279,梦发廊(山西南路),山西南路300号(南京东路地铁站1号口步行310米),121.481581,31.238883,生活服务
1280,龙泉居委会,浙江中路462号,121.477418,31.237163,政府机构及社会团体
1281,培罗蒙(天津路店),天津路307号(南京东路地铁站1号口步行360米),121.480357,31.237154,购物服务
1282,普利斯奇正软件系统有限公司,北京东路668号上海科技京城东楼15层,121.478415,31.239324,公司企业
1283,浦发银行24小时自助银行(黄浦支行),宁波路50号(南京东路地铁站6号口步行180米),121.48603,31.239696,金融保险服务
1284,黄浦环卫大楼,南苏州路757号,121.477236,31.240462,商务住宅
1285,上海市商贸旅游学校(浦西校区),贵州路101号(人民广场地铁站19号口步行360米),121.47611,31.235938,科教文化服务
1286,新科安达后勤保障有限公司上海分公司,北京东路668号上海科技京城东楼31层,121.478415,31.239324,公司企业
1287,上海时代远程进修学院,天津路158号(南京东路地铁站5号口步行110米),121.483267,31.238322,科教文化服务
1288,上海天戈国际物流有限公司,北京东路668号上海科技京城东楼20楼A座,121.478415,31.239324,生活服务
1289,添岚橡塑,牛庄路583-5号,121.479185,31.237928,购物服务
1290,上海万方数据有限公司,北京东路668号上海科技京城东楼,121.478415,31.239324,公司企业
1291,晓琳饮食店(宁波路),宁波路641号(人民广场地铁站19号口步行370米),121.475445,31.236388,餐饮服务
1292,雅光眼镜店,福建中路391号(南京东路地铁站1号口步行400米),121.479853,31.236894,购物服务
1293,上海招聘网,北京东路668号上海科技京城东楼24、28层,121.478415,31.239324,公司企业
1294,中国银行(南京东路第二支行),六合路69号(人民广场地铁站19号口步行260米),121.47481,31.235836,金融保险服务
1295,上海馨家宾馆,南京东路558号南京路步行街,121.479312,31.236996,住宿服务
1296,华氏大药房(黄浦分店),宁波路100号(南京东路地铁站6号口步行80米),121.485034,31.239487,医疗保健服务
1297,浦发银行24小时自助银行(住业大厦支行),北京西路99号住业大厦F1层,121.470939,31.236297,金融保险服务
1298,太旦图文设计制作部,江西中路406号(南京东路地铁站6号口步行300米),121.485521,31.240838,生活服务
1299,上海新八仙(集团)有限公司,云南北路59号六合大厦7层,121.474795,31.237193,公司企业
1300,新金桥广场,南京东路街道西藏中路585号,121.472771,31.236933,商务住宅
1301,郏芬芬扦脚门诊部(新闸路店),"新闸路200号(长新大楼1楼,近新闸路地铁站)",121.469798,31.238645,医疗保健服务
1302,光凯烟杂店,牯岭路167号(新闸路地铁站6号口步行300米),121.470781,31.235824,购物服务
1303,上海市物理业余学校,长沙路35号(人民广场地铁站7号口步行340米),121.472299,31.235994,科教文化服务
1304,邵万生商贸有限公司,北京西路165号(新闸路地铁站6号口步行260米),121.470551,31.236179,公司企业
1305,百联集团上海百货理事会,六合路58新一百大厦15层B座,121.475213,31.235871,公司企业
1306,上海福司得化纤技术有限公司,云南北路59六合大厦9层,121.474795,31.237193,公司企业
1307,恒丰大楼,江西中路452号(南京东路地铁站6号口步行400米),121.485391,31.241741,商务住宅
1308,上海市黄浦区星光幼儿园,顾家弄54号,121.478157,31.238053,科教文化服务
1309,黄浦区建筑建材业受理服务中心,山西南路225号(南京东路地铁站1号口步行170米),121.481874,31.237572,政府机构及社会团体
1310,上海景金仪电·蒋兴忠,香港路111号凯恩商务楼353,121.48574,31.242437,公司企业
1311,兰芳阁贸易(上海)有限公司,六合路58新一百大厦15层E座,121.475213,31.235871,公司企业
1312,上海洛克医疗仪器科技有限公司,香港路111号凯恩商务楼325,121.48574,31.242437,公司企业
1313,希世软件系统(上海)有限公司,北京东路668号上海科技京城东楼18层,121.478415,31.239324,公司企业
1314,银河公寓,山东北路83号(南京东路地铁站6号口步行410米),121.481919,31.240278,商务住宅
1315,永亨大楼,宁波路266号(南京东路地铁站6号口步行250米),121.482106,31.238892,商务住宅
1316,正红假日酒店(上海北京东路店),贵州路221号,121.475546,31.237813,住宿服务
1317,中国光大银行,南京路38号家乐福(南京东路地铁站6号口步行210米),121.48597,31.239185,金融保险服务
1318,捷强烟酒专卖店(香港路店),香港路123号(南京东路地铁站6号口步行490米),121.485189,31.24228,购物服务
1319,上海市物流学会,江西中路406-2号3楼(南京东路地铁站6号口步行290米),121.485167,31.240442,政府机构及社会团体
1320,老大同(宁波路店),宁波路215号(南京东路地铁站6号口步行150米),121.483061,31.23902,餐饮服务
1321,华通机电集团,北京东路389-393号(南京东路地铁站6号口步行300米),121.482547,31.240083,公司企业
1322,上海市音乐幼儿园,厦门路180号,121.474998,31.239588,科教文化服务
1323,上海市房地资源展示厅,北京西路95号房地大厦(新闸路地铁站6号口步行330米),121.471294,31.236363,科教文化服务
1324,和立实业发展有限公司黄浦分公司,风阳路206号(人民广场地铁站8号口步行280米),121.471689,31.234445,购物服务
1325,上海鸿波阀门有限公司,石潭弄211号,121.479601,31.238452,购物服务
1326,家化中房苑,西藏中路725弄10-12号,121.472173,31.239426,商务住宅
1327,联庆企业国务院发改委经理日报社上海记者站(暂停营业),新闸路200长新大楼(新闸路地铁站6号口步行50米),121.469805,31.238701,科教文化服务
1328,上海梁根立口腔诊所,天津路159-2号3楼(南京东路地铁站5号口步行140米),121.483235,31.238054,医疗保健服务
1329,良友(凤阳1店),凤阳路204号(人民广场地铁站8号口步行270米),121.471673,31.234559,购物服务
1330,上海施必牢机械设备有限公司,北京西路1新金桥广场3-C,121.473187,31.237115,公司企业
1331,外滩经济发展中心,山西南路260号(南京东路地铁站1号口步行230米),121.481964,31.238243,公司企业
1332,雅戈尔(南京东路旗舰店),南京东路328号(南京东路地铁站3号口旁),121.483744,31.237264,购物服务
1333,上海雍兴国际贸易有限公司,山西南路350号上海物资大厦907,121.481432,31.239541,公司企业
1334,上海物资大厦,山西南路350号(南京东路地铁站1号口步行380米),121.481625,31.239498,商务住宅
1335,绿雅酒家,江西中路372号2层(南京东路地铁站6号口步行210米),121.485882,31.239983,餐饮服务
1336,上海科技京城西楼,北京东路668号,121.477134,31.238973,商务住宅
1337,交通银行(上海北京东路支行),北京东路668号上海科技京城东楼1层,121.477971,31.239114,金融保险服务
1338,北京东路东楼,北京东路668号,121.478441,31.239302,商务住宅
1339,上海照明灯具有限公司,浙江中路598号上海科技京城A区1层A101,121.479466,31.237941,公司企业
1340,百联ZX,南京东路340-372号(南京东路地铁站1号口步行70米),121.483254,31.237161,购物服务
1341,视良眼镜公司(南京路步行街店),南京东路558号南京路步行街(东北角),121.480695,31.237258,购物服务
1342,小杨生煎(南京路步行街店),宁波路178号(近河南中路),121.483806,31.239273,餐饮服务
1343,AVK Valves(Shanghai)Co.Ltd.,北京东路668号上海科技京城东楼7层,121.478415,31.239324,公司企业
1344,上海市财贸企管协会,北京东路356号国华大楼8层815室,121.483266,31.240589,政府机构及社会团体
1345,上海怡芯高电子有限公司,福建中路567号上海科技京城C区5层C508,121.478324,31.239715,公司企业
1346,上海黄浦区迪檬饮食店,贵州路与天津路交叉口北20米,121.476134,31.236129,餐饮服务
1347,上海杜威(香港)电子有限公司,福建中路567号上海科技京城C区4层C415,121.478324,31.239715,公司企业
1348,国华大楼,北京东路356号(南京东路地铁站6号口步行220米),121.483271,31.240505,商务住宅
1349,上海哈丁精密机电有限公司,福建中路567号上海科技京城C区5层C518,121.478324,31.239715,公司企业
1350,哈尔滨第三工具厂上海销售中心,福建中路567号上海科技京城C区1层C111,121.478324,31.239715,公司企业
1351,华安美丽馆(南京西路店),南京西路110号(人民广场地铁站8号口步行140米),121.472496,31.234138,生活服务
1352,华宝证券(上海西藏中路证券营业部),北京西路1号新金桥广场3-A,121.473014,31.237098,金融保险服务
1353,上海市黄浦公证处,南苏州路333号华隆大厦4层,121.483886,31.242051,政府机构及社会团体
1354,上海晶鼎电子有限公司,福建中路567号上海科技京城C区3层C326,121.478324,31.239715,公司企业
1355,景云大楼,北京东路378号(南京东路地铁站6号口步行280米),121.482643,31.240548,商务住宅
1356,康臻,福建中路567号上海科技京城C区3层C321,121.478324,31.239715,公司企业
1357,老闸捕房旧址,南京东路558号南京路步行街,121.476198,31.235954,风景名胜
1358,上海雷源电器有限公司,福建中路567号上海科技京城C区3层C319,121.478324,31.239715,公司企业
1359,上海连宝电子有限公司,福建中路567号上海科技京城C区5层C501,121.478324,31.239715,公司企业
1360,上海明勋电子设备有限公司,福建中路567号上海科技京城C区3层C311,121.478324,31.239715,公司企业
1361,上海普崎线路板有限公司,福建中路567号上海科技京城C区3层C316,121.478324,31.239715,公司企业
1362,上海日康机械阀门有限公司,福建中路567号上海科技京城C区1层C107,121.4777,31.239958,公司企业
1363,上海市天达日用品贸易公司,云南北路59六合大厦3层,121.474795,31.237193,公司企业
1364,意大利B.M.工业股份公司上海代表处,浙江中路398-400号春申江大厦8层808,121.478247,31.236244,公司企业
1365,上海银晶电子发展有限公司,福建中路567号上海科技京城C区4层C401,121.478324,31.239715,公司企业
1366,上海泽畅电子有限公司,福建中路567号上海科技京城C区3层C320,121.478324,31.239715,公司企业
1367,中共上海科技京城委员会,福建中路567号上海科技京城C区,121.478324,31.239715,政府机构及社会团体
1368,黄隆泰(浙江中路店),浙江中路457、459号,121.47733,31.237005,购物服务
1369,北京里,北京东路288弄3-80号,121.484063,31.241233,商务住宅
1370,中国建设银行24小时自助银行(福建路支行),北京东路461号(南京东路地铁站6号口步行370米),121.481752,31.239805,金融保险服务
1371,公共厕所,厦门路164号,121.475282,31.239596,公共设施
1372,星巴克(新金桥店),西藏中路579-581号,121.473433,31.237211,餐饮服务
1373,好德(江津店),江西中路328号(南京东路地铁站6号口步行220米),121.486289,31.239079,购物服务
1374,南京东路街道社区图书馆,牯岭路111号,121.471792,31.236136,科教文化服务
1375,小宁波海鲜馆(天津路店),天津路356号(南京东路地铁站1号口步行420米),121.479697,31.237166,餐饮服务
1376,积福里,宁波路457弄1-8号(南京东路地铁站1号口步行450米),121.479088,31.237251,商务住宅
1377,德兴里,牛庄路731弄4-4号,121.476169,31.237203,商务住宅
1378,怡水豪庭,南苏州路933号,121.474713,31.240573,商务住宅
1379,鸿兴里,厦门路243弄3-15号,121.474034,31.238804,商务住宅
1380,思源商厦,西藏中路500号(人民广场地铁站19号口步行310米),121.474404,31.236368,商务住宅
1381,余庆里,温州路33弄2-6号(新闸路地铁站6号口步行180米),121.470059,31.236747,商务住宅
1382,珠江大楼(江西中路),江西中路320号(南京东路地铁站6号口步行250米),121.486401,31.238803,商务住宅
1383,应氏大厦,天津路180号(南京东路地铁站5号口步行160米),121.482569,31.238233,商务住宅
1384,上海市应昌期围棋教育基金会,天津路180号应氏大厦F1层,121.482693,31.238336,政府机构及社会团体
1385,公共厕所,山东北路52弄4号,121.482417,31.239925,公共设施
1386,四川米线(山东中路),南京东路353号悦荟广场(南京东路地铁站1号口步行210米),121.481787,31.237792,餐饮服务
1387,中一大楼,北京东路270号(南京东路地铁站6号口步行280米),121.484842,31.240956,风景名胜
1388,无锡小区,山西南路349弄9-11号,121.480332,31.238827,商务住宅
1389,中国电信股份有限公司上海中区电信局,福建中路460号(南京东路地铁站1号口步行480米),121.479777,31.237908,公司企业
1390,鸿福里,新闸路66弄4-154号(新闸路地铁站6号口步行200米),121.472155,31.23837,商务住宅
1391,东方商厦停车场,宁波路659号(人民广场地铁站19号口步行350米),121.475249,31.236309,交通设施服务
1392,华通大楼,牛庄路619号,121.478307,31.237757,商务住宅
1393,顺风大酒店(上海市第一百货商店),南京东路830号上海市第一百货商店7层,121.474594,31.235683,餐饮服务
1394,协和里,牯岭路167号近黄河路(人民广场地铁站8号口步行350米),121.470725,31.235376,商务住宅
1395,怀德里,凤阳路200弄3-11号、4-12号,121.471473,31.234793,商务住宅
1396,莉莲(新世界城店),南京西路2-68号新世界城B1楼(人民广场地铁站7号口旁),121.473448,31.234807,餐饮服务
1397,SFC上影影城(新世界店),南京西路2-68号新世界城12层(人民广场地铁站7号口旁),121.473676,31.235117,体育休闲服务
1398,塔哈尔(新世界城店),南京西路2新世界城L8层(人民广场地铁站7号口步行60米),121.473671,31.235113,餐饮服务
1399,旋景餐厅,南京西路88号上海新世界丽笙大酒店45层,121.47295,31.234643,餐饮服务
1400,协通集团,北京东路398号上海外滩璞砚酒店,121.482295,31.24034,公司企业
1401,上影百联影城(南京路步行街店),西藏中路500号8层(人民广场地铁站19号口步行270米),121.474175,31.236015,体育休闲服务
1402,双拥弄,厦门路76弄4-30号,121.476864,31.240064,商务住宅
1403,河滨豪园,"北苏州路668号,山西北路9弄",121.47987,31.240767,商务住宅
1404,宁波小区,宁波路120弄(南京东路地铁站6号口步行60米),121.484694,31.23985,商务住宅
1405,山北小区,河南中路575弄1-11号,121.483051,31.239909,商务住宅
1406,华隆大厦,南苏州路333号(南京东路地铁站6号口步行410米),121.483985,31.241892,商务住宅
1407,三和里,江西中路412弄1-51号,121.485868,31.241355,商务住宅
1408,水景苑,新闸路166-168号(新闸路地铁站6号口步行90米),121.470545,31.238666,商务住宅
1409,福瑞小区,温州路48号(新闸路地铁站6号口步行100米),121.470631,31.237562,商务住宅
1410,上海市格致初级中学,长沙路35号(人民广场地铁站7号口步行370米),121.472064,31.235761,科教文化服务
1411,美欣大厦,西藏中路728号(曲阜路地铁站2号口步行380米),121.473019,31.239821,商务住宅
1412,美华大楼,西藏中路656号(近厦门路),121.473614,31.238659,商务住宅
1413,宏兴里,北京东路850弄3-23号、4-20号,121.473836,31.238129,商务住宅
1414,后逢吉里,贵州路131弄4-16号,121.475839,31.236225,商务住宅
1415,华东商务楼(河南中路),河南中路505号(南京东路地铁站6号口步行70米),121.483914,31.239012,商务住宅
1416,爱民弄,宁波路587弄2-7号(人民广场地铁站19号口步行400米),121.476444,31.236263,商务住宅
1417,保康里,北京东路756弄,121.475895,31.238798,商务住宅
1418,衍庆里,厦门路230弄2-76号,121.473818,31.2397,商务住宅
1419,体育大厦(南京西路),南京西路150号(新世界城旁边),121.471933,31.233872,商务住宅
1420,渭水坊,广西北路470弄2-10号,121.476884,31.237104,商务住宅
1421,永平安,宁波路620弄3-21号,121.475552,31.236695,商务住宅
1422,上海浦东发展银行ATM(黄埔支行),牛庄路658号东银大厦,121.477372,31.238208,金融保险服务
1423,上海电力实业有限公司,宁波路309号(南京东路地铁站1号口步行310米),121.481399,31.23824,公司企业
1424,丽笙星空酒吧(暂停营业),南京西路88号新世界丽笙大酒店47层(近西藏中路),121.472949,31.234643,体育休闲服务
1425,上海市体育局,南京西路150号体育大厦F7层,121.471951,31.233714,政府机构及社会团体
1426,人安里,"牯岭路145弄3-33号,牯岭路145弄4-26号",121.471299,31.235633,商务住宅
1427,来有便利店,白河路37号(人民广场地铁站8号口步行300米),121.471768,31.235306,购物服务
1428,吉祥里,河南中路541弄8-36号(南京东路地铁站6号口步行80米),121.483214,31.239498,商务住宅
1429,侨苑,北京西路120弄3-6号(新闸路地铁站6号口步行320米),121.471275,31.236872,商务住宅
1430,三星里,北京西路134弄3-11号(新闸路地铁站6号口步行270米),121.470959,31.236833,商务住宅
1431,中共上海市黄浦区委老干部局,南京东路街道天津路353号,121.479045,31.236657,政府机构及社会团体
1432,大观园绿地,共和新路街道5000号(新闸路地铁站6号口步行310米),121.47212,31.237649,风景名胜
1433,永康里(北京东路),北京东路796弄1-25号,121.47506,31.238281,商务住宅
1434,上海商贸旅游职业技能培训中心(贵州路),贵州路195号(人民广场地铁站19号口步行490米),121.475554,31.237411,科教文化服务
1435,耕畴里,温州路54弄5-7号(新闸路地铁站6号口步行130米),121.470225,31.237321,商务住宅
1436,宁波路停车场,宁波小区东南门旁(南京东路地铁站6号口旁),121.484555,31.23939,交通设施服务
1437,上海市房地产行业协会第六(黄房)工作委员会,江西中路374号(南京东路地铁站6号口步行220米),121.486041,31.240179,政府机构及社会团体
1438,中国人民财产保险股份有限公司(上海市分公司直属支公司),南苏州路333号华隆大厦18层,121.484011,31.241887,金融保险服务
1439,上海市黄浦区中医医院,宁波路109号(南京东路地铁站6号口步行50米),121.48484,31.239135,医疗保健服务
1440,上海市规划和自然资源局,北京西路95号房地大厦F1层,121.471175,31.23637,政府机构及社会团体
1441,雅居乐国际广场,西藏中路525号(人民广场地铁站7号口步行280米),121.473092,31.236161,商务住宅
1442,东风小区东区,天津路195弄1-54号(南京东路地铁站1号口步行120米),121.482846,31.237568,商务住宅
1443,上海人大人科学发展研究院,六合路58号新一百大厦17层,121.475213,31.235871,科教文化服务
1444,外滩街道社区文化活动中心,河南中路578号(南京东路地铁站6号口步行210米),121.484232,31.240333,商务住宅
1445,上海华声电器研究所,北京东路360弄3-20号,121.483047,31.240444,科教文化服务
1446,申之江,云南北路30号(人民广场地铁站19号口步行420米),121.475285,31.23693,公司企业
1447,百联集团股份有限公司一百商城分公司,六合路58新一百大厦16层F-I座,121.475213,31.235871,公司企业
1448,牯岭路-道路停车位,牯岭路(人民广场地铁站7号口步行450米),121.472998,31.236761,交通设施服务
1449,怡水豪庭停车场,贵州路与厦门路交叉口北100米,121.474931,31.240341,交通设施服务
1450,机械车库,家化中房苑东南门旁(新闸路地铁站6号口步行370米),121.472167,31.239365,交通设施服务
1451,永新广场,南京西路128号(人民广场地铁站9号口步行140米),121.472135,31.234147,商务住宅
1452,盐业大楼,北京东路280号(南京东路地铁站6号口步行240米),121.484556,31.240828,风景名胜
1453,住业大厦,北京西路99号(新闸路地铁站6号口步行270米),121.470936,31.236304,商务住宅
1454,恒基名人商业大厦,南京东路300号F3层L316,121.484034,31.237886,商务住宅
1455,天津路,黄浦区,121.480677,31.237404,地名地址信息
1456,北京东路,黄浦区,121.4804,31.239534,地名地址信息
1457,广场嘉廷酒店,新闸路126号(新闸路地铁站6号口步行250米),121.471324,31.238703,住宿服务
1458,南京西路-道路停车位,南京西路88号(人民广场地铁站7号口步行70米),121.473292,31.234283,交通设施服务
1459,浦超宾馆(外滩店),宁波路70号(南京东路地铁站6号口步行130米),121.48561,31.239642,住宿服务
1460,航空机票代售点(新闸路),新闸路81号(新闸路地铁站6号口步行240米),121.471734,31.237878,生活服务
1461,全家便利店(新金桥广场店),北京西路3号(人民广场地铁站19号口步行440米),121.473186,31.23736,购物服务
1462,顺丰速运(外滩速运营业点),河南中路660号(南京东路地铁站6号口步行350米),121.483604,31.241807,生活服务
1463,外滩慈善超市,江西中路428号(南京东路地铁站6号口步行340米),121.485422,31.241182,政府机构及社会团体
1464,象屿集团大厦,南苏州路999号(新闸路地铁站6号口步行280米),121.471497,31.23912,商务住宅
1465,上海新仕机电设备有限公司,南苏州路545号(南京东路地铁站6号口步行470米),121.481203,31.240082,购物服务
1466,金门大酒店罗马厅(南京西路店),南京西路108号金门大酒店8层,121.472532,31.234309,餐饮服务
1467,中国农业银行(北京东路支行),山东北路83号银河公寓F1层,121.481791,31.24016,金融保险服务
1468,蓝山国际青年旅舍(上海外滩店),山西南路350号上海物资大厦6层,121.481464,31.239544,住宿服务
1469,盆汤弄,福建路(南京东路地铁站4号口步行360米),121.48034,31.236644,商务住宅
1470,瑞康里,北京东路830弄2-34号,121.474595,31.238622,商务住宅
1471,天津路-道路停车位,山西南路与天津路交叉口西北20米,121.481865,31.238004,交通设施服务
1472,上海科技京城C区,福建中路567号,121.478324,31.239715,商务住宅
1473,房地大厦(北京西路),北京西路95号(新闸路地铁站6号口步行310米),121.471341,31.23636,商务住宅
1474,上海雅居乐万豪侯爵酒店,西藏中路555号(人民广场地铁站19号口步行440米),121.473614,31.236373,住宿服务
1475,7天酒店(上海外滩南京路步行街店),山西南路350号物资大厦5层,121.481244,31.239647,住宿服务
1476,英商自来水公司大楼,江西中路484号,121.484961,31.242546,风景名胜
1477,中信银行24小时自助银行(外滩支行),中潭路100弄318(南京东路地铁站6号口步行220米),121.484344,31.240603,金融保险服务
1478,中国农业银行ATM,北京东路412号(南京东路地铁站6号口步行350米),121.48178,31.240178,金融保险服务
1479,上海雅居乐万豪侯爵酒店停车场,西藏中路555号上海雅居乐万豪酒店,121.472595,31.236419,交通设施服务
1480,中信银行(外滩支行),北京东路290号(南京东路地铁站6号口步行220米),121.484344,31.240624,金融保险服务
1481,上海金机金属机电有限公司,新闸路104号(新闸路地铁站6号口步行190米),121.471292,31.238287,购物服务
1482,新世界商务楼,南京西路2-88号(人民广场地铁站19号口步行280米),121.473745,31.235587,商务住宅
1483,华侨城苏河湾东区88号院,山西北路88弄(天潼路地铁站5号口步行360米),121.48138,31.242293,商务住宅
1484,中国工商银行24小时自助银行(西藏中路支行),西藏中路525号雅居乐国际广场,121.473468,31.235777,金融保险服务
1485,南京东路街道人民调解委员会劳动争议调解工作室,新闸路124-2号(新闸路地铁站6号口步行190米),121.471076,31.238456,政府机构及社会团体
1486,新世界日语(人广校区),六合路98港陆黄浦中心8层A,121.475061,31.236612,科教文化服务
1487,上海华定电控设备成套有限公司(永亨大楼店),宁波路266号永亨大楼F1层,121.482243,31.238932,购物服务
1488,中国工商银行(西藏中路支行),西藏中路525号雅居乐国际广场,121.473193,31.235562,金融保险服务
1489,科技京城党委,北京东路668号上海科技京城西楼16层,121.477129,31.239029,政府机构及社会团体
1490,上海体育博物馆陈列室,南京西路150号体育大厦2层(近国际饭店),121.471874,31.233828,科教文化服务
1491,JJ Treehouse英语培训中心,六合路98号港陆黄浦中心F1层,121.475061,31.236612,科教文化服务
1492,南京东路街道社区卫生服务中心浙江中路分中心,天津路396-398号南京东路街道社区卫生服务中心浙江中路,121.478869,31.23684,医疗保健服务
1493,南京东路派出所牛庄警务工作室,芝罘路与六合路交叉口东北40米,121.474738,31.237743,政府机构及社会团体
1494,子鱼居(外滩店),河南中路639号(南京东路地铁站6号口步行270米),121.483063,31.240961,住宿服务
1495,上海唯艾酒店(外滩店),宁波路180号(南京东路地铁站6号口步行90米),121.483688,31.239226,住宿服务
1496,陈记海鲜酒家(牛庄路店),牛庄路707号(距地铁1/2/8号线人民广场站19号口步行670m),121.476503,31.237404,餐饮服务
1497,新世界小语种培训学校,六合路98港陆黄浦中心9层B,121.475061,31.236612,科教文化服务
1498,新世界会计培训学校,六合路98港陆黄浦中心9层C,121.475061,31.236612,科教文化服务
1499,福建千里香馄饨王(上海华东商务楼店),南京东路地铁站6号口步行90米,121.483712,31.239041,餐饮服务
1500,上海新世界进修中心(港陆总校),六合路98(人民广场地铁站19号口步行330米),121.475061,31.236612,科教文化服务
1501,紫金阁紫砂艺术,南苏州路与山东北路交叉口东北60米,121.482537,31.240941,购物服务
1502,上海嘉曼商贸有限公司,北京东路668号上海科技京城西楼,121.478479,31.239298,公司企业
1503,洪德里,厦门路137弄,121.475809,31.2393,商务住宅
1504,上海市黄浦区教育考试中心,凤阳路186号(人民广场地铁站8号口步行240米),121.471877,31.234804,政府机构及社会团体
1505,三角地房产(吉祥里店),河南中路537号(南京东路地铁站6号口步行90米),121.483832,31.239575,生活服务
1506,东方商厦停车场(出口),宁波路659号(人民广场地铁站19号口步行370米),121.475041,31.236297,交通设施服务
1507,都会尚膳全日餐厅(上海雅居乐万豪侯爵酒店),西藏中路555号上海雅居乐万豪侯爵酒店3楼,121.473389,31.236425,餐饮服务
1508,外滩社区卫生服务中心,宁波路321号(南京东路地铁站1号口步行360米),121.481021,31.238256,医疗保健服务
1509,明天教室成人绘画教育(第一百货商业中心店),南京东路800号第一百货商业中心F6层,121.475233,31.235062,餐饮服务
1510,国家能源局华东监管局,江西中路367号(南京东路地铁站6号口步行200米),121.4857,31.239845,政府机构及社会团体
1511,泛太平洋国际大厦,六合路与凤阳路交叉口(思源大厦北侧),121.47417,31.237177,商务住宅
1512,牛庄小区,芝罘路112弄1-6号(人民广场地铁站19号口步行470米),121.475066,31.237702,商务住宅
1513,老介福(金光天津店),天津路159号(南京东路地铁站5号口步行160米),121.483316,31.237868,购物服务
1514,KOKUYO(新金桥广场店),北京西路7号新金桥广场1楼(新闸路地铁站6号口步行450米),121.472997,31.237287,购物服务
1515,宁波路幼儿园,宁波路120弄8号(南京东路地铁站6号口步行80米),121.48468,31.239687,科教文化服务
1516,上海灯具招待所,盆汤弄64弄5号(南京东路地铁站1号口步行250米),121.480879,31.236765,住宿服务
1517,莱程印务,牯岭路135号(新闸路地铁站6号口步行350米),121.471371,31.236055,生活服务
1518,上海广连实业有限公司,福建中路567号上海科技京城C区5A2座,121.478324,31.239715,公司企业
1519,小杨生煎(南京东路店),南京东路720号第一食品商店3层(近贵州路),121.476742,31.235463,餐饮服务
1520,鸡公堡,山西南路186号(南京东路地铁站1号口步行110米),121.482357,31.237146,餐饮服务
1521,西侨青年会,南京西路150号体育大厦F1层,121.472063,31.233772,政府机构及社会团体
1522,上海丰鸿物资有限公司,北京东路499弄6-14号正门旁,121.480734,31.239747,公司企业
1523,北京东路三一六弄28号,北京东路316弄东北侧,121.484405,31.241324,地名地址信息
1524,北京东路四九九弄6号,山西南路349弄9-11号无锡小区,121.480509,31.239326,地名地址信息
1525,北京东路三一六弄26号,北京东路288弄3-80号,121.484233,31.241281,地名地址信息
1526,盆汤弄42号,五福弄东风-西区,121.481389,31.236898,地名地址信息
1527,盆汤弄90号楼,石潭弄南京路步行街,121.480655,31.23674,地名地址信息
1528,上海碧云花园服务公寓(人民广场),北京西路55号(新闸路地铁站6号口步行410米),121.47279,31.236943,住宿服务
1529,有家饭店(香港路店),四川中路香港路交叉口641号(香港路路口),121.485911,31.242566,餐饮服务
1530,麦林大楼,江西中路451-1号附近(南京东路地铁站6号口步行440米),121.484782,31.241878,商务住宅
1531,萃祥坊,宁波路456弄3-23号,121.478745,31.237507,商务住宅
1532,华安人寿保险公司旧址,南京西路108号(人民广场地铁站8号口步行110米),121.472686,31.234247,风景名胜
1533,上海市黄浦区外滩街道山东北路居民委员会,河南中路531弄24号(南京东路地铁站6号口步行140米),121.483162,31.239377,政府机构及社会团体
1534,黄浦区南京东路街道云中居民委员会,贵州路131弄16号(人民广场地铁站19号口步行450米),121.475695,31.236321,政府机构及社会团体
1535,新一五金商场停车场,牛庄路658号新一五金商场,121.477543,31.237864,交通设施服务
1536,威斯康公司,宁波路349号达丰大楼F3层,121.480688,31.238274,公司企业
1537,三林塘馄饨店,江西中路420(南京东路地铁站6号口步行350米),121.485421,31.241132,餐饮服务
1538,青正消防设备水泵机电,山西南路312号(南京东路地铁站1号口步行330米),121.481496,31.239027,购物服务
1539,如家酒店(上海外滩南京东路地铁站店),河南中路558号(南京东路地铁站6号口步行90米),121.484295,31.23977,住宿服务
1540,博为峰软件技术有限公司,云南北路59号六合大厦10层、15层,121.47492,31.237281,公司企业
1541,华安养生,凤阳路218号(国际饭店后面),121.471581,31.23416,生活服务
1542,Shana(新世界城店),西藏中路525号雅居乐国际广场1楼,121.473355,31.236232,购物服务
1543,8分钟相亲交友,西藏中路525号雅居乐国际广场,121.473591,31.23617,生活服务
1544,六福珠宝(上海新世界城店),中国南京西路2-68号上海新世界一楼,121.473574,31.235474,购物服务
1545,Paradigm Communications,浙江中路398-400号春申江大厦8层802,121.478247,31.236244,公司企业
1546,甲苯上海,浙江中路398-400号春申江大厦6层618,121.478247,31.236244,公司企业
1547,汇华(北京)信息咨询服务有限公司上海分公司,六合路58号新一百大厦18层D座,121.475213,31.235871,公司企业
1548,上海市低碳科技与产业发展协会,六合路58号新一百大厦17层,121.475213,31.235871,政府机构及社会团体
1549,德国科来机械制造有限公司上海代表处,六合路58新一百大厦15层B座,121.475213,31.235871,公司企业
1550,曼苏乐(上海)新能源科技有限公司,北京东路668号科技京城西楼30层C05室,121.478324,31.239715,公司企业
1551,浦惠南东公寓(装修中),天津路500号(人民广场地铁站19号口步行450米),121.477196,31.236185,住宿服务
1552,上海上城环境卫生运输有限公司,南苏州路757号黄埔环卫大楼,121.474026,31.240799,公司企业
1553,上海市新黄浦区绿化管理所,南苏州路757号黄浦环卫大楼F1层,121.477244,31.240479,政府机构及社会团体
1554,轻住悦享(南京东路步行街店),山西南路350号物资大厦3层(近北京东路),121.481345,31.239365,住宿服务
1555,上海天川仪表厂,北京东路378号景云大楼7层,121.482824,31.240371,公司企业
1556,濮阳市人民政府驻上海联络处,香港路150号(南京东路地铁站6号口步行500米),121.485148,31.242414,政府机构及社会团体
1557,无印良品(上海雅居乐广场店),西藏中路525号雅居乐国际广场1层,121.473082,31.23548,购物服务
1558,上海紫砂实业有限公司(北京东路东楼店),北京东路688号科技京城东楼17层,121.478415,31.239324,购物服务
1559,海鱼寿司(人民广场/牯岭路店),"牯岭路137号(新世界丽笙大酒店后面,步行2分钟)",121.471291,31.236019,餐饮服务
1560,珍御轩(新金桥广场店),北京西路61号新金桥广场1层,121.472355,31.236671,餐饮服务
1561,银子日本料理铁板烧(港陆黄浦中心店),六合路98号港陆黄浦中心1层102号,121.474907,31.236561,餐饮服务
1562,上海诚之医药商业培训中心(宁波路),北京东路460号(南京东路地铁站6号口步行400米),121.481282,31.23997,科教文化服务
1563,中央储蓄会,天津路2号(南京东路地铁站6号口步行200米),121.485873,31.23927,风景名胜
1564,上海捷强烟草糖酒(集团)有限公司教育培训中心,香港路123号3层(南京东路地铁站6号口步行380米),121.485279,31.241514,科教文化服务
1565,松柏公寓南楼,北京东路431弄1-21号,121.482253,31.239294,地名地址信息
1566,上海游驰网络技术有限公司,北京东路668号东楼上海科技京城东楼24层F座,121.47844,31.239296,公司企业
1567,上海市职业教育开放实训中心,云南北路50号(人民广场地铁站19号口步行490米),121.47557,31.237376,科教文化服务
1568,三通包装材料公司,南苏州路与新菜场路交叉口东40米,121.479849,31.239772,公司企业
1569,新康辉国际旅行社公司(黄浦营业部),西藏中路728号美欣大厦F6层,121.473092,31.239662,生活服务
1570,中国垦业银行旧址,北京东路239、255号(南京东路地铁站6号口步行220米),121.485266,31.240421,风景名胜
1571,上海兆吉实业有限公司,六合路98号港陆黄浦中心F5层,121.474932,31.236625,公司企业
1572,香港斯柏力克国际公司上海代表处,北京东路668号上海科技京城F5层,121.478433,31.239211,公司企业
1573,赛康美信息技术公司,云南北路59号六合大厦F15层,121.47492,31.237281,公司企业
1574,大新公司旧址,南京东路830号(人民广场地铁站19号口步行190米),121.474753,31.234869,风景名胜
1575,新白鹿(南京东路店),南京东路800号第一百货c馆9层,121.475319,31.235826,餐饮服务
1576,掌上韩品(恒基名人购物中心店),南京东路300号名人购物中心B2楼204号,121.483931,31.237879,餐饮服务
1577,媚丽一生(新世界城店),南京西路2-88号上海新世界城2楼,121.473254,31.235314,购物服务
1578,安德玛(新世界城店),南京西路2-68号新世界百货名店运动城6楼,121.473246,31.234859,购物服务
1579,南唐居委会,北苏州路780号,121.47743,31.241752,政府机构及社会团体
1580,千机网手机维修(上海黄浦天津路店),天津路251号(南京东路地铁站1号口步行260米),121.481321,31.237462,生活服务
1581,LEE(新世界城店),南京西路2-88号新世界4楼,121.473337,31.235383,购物服务
1582,上海市体育俱乐部,南京西路150号(人民公园对面),121.471828,31.233784,住宿服务
1583,上海新世界丽笙大酒店-大宴会厅,南京西路88号上海新世界丽笙大酒店3层,121.47291,31.234732,餐饮服务
1584,公共厕所(时装商店),南京东路650-690号时装商店2层,121.477133,31.235795,公共设施
1585,中恳小区,江西中路与宁波路交叉口西北60米,121.485506,31.240032,商务住宅
1586,BUSTOUR上海观光旅游(新世界站),南京西路与西藏中路交叉口西南40米(人民广场地铁站7号口旁),121.473984,31.234478,交通设施服务
1587,小上海,恒基名人商业大厦西北2门西50米,121.48323,31.238294,购物服务
1588,宜信财富管理中心(南京东路营业部),天津路155号名人商业大厦1906室,121.484177,31.238096,金融保险服务
1589,肯德基(新市百餐厅),南京东路830号第一百货商业中心A馆F1层,121.474373,31.23569,餐饮服务
1590,WEIPENG(新世界城店),南京西路2-68号新世界城L4层,121.473227,31.235252,购物服务
1591,星巴克(黄浦永新广场店),南京西路128号永新广场1F,121.472262,31.23399,餐饮服务
1592,国网上海经研院,江西中路320号珠江大楼F1层,121.486305,31.238905,科教文化服务
1593,宁波小区74弄,江西中路与宁波路交叉口西北60米,121.485347,31.239905,商务住宅
1594,椒香辉映干锅制造(第一百货商业中心店)(暂停营业),南京东路800号9楼(人民广场地铁站19号口步行230米),121.475169,31.235657,餐饮服务
1595,赛百味(恒基名人购物中心店),南京东路300号恒基名人购物中心B1层,121.484071,31.237709,餐饮服务
1596,中共宁波路居民区总支部委员会,宁波路120弄24号(南京东路地铁站6号口步行150米),121.484671,31.240205,政府机构及社会团体
1597,鸥美药妆医疗美容门诊部,北京东路与河南中路交叉口东50米,121.484282,31.24061,医疗保健服务
1598,中一大楼停车场,河南中路北京里附近(南京东路地铁站6号口步行310米),121.48465,31.241191,交通设施服务
1599,上海市黄浦公证处接待室,香港路150号,121.485247,31.242519,政府机构及社会团体
1600,凝瑞居公寓,四川中路香港路150号(南京东路地铁站6号口步行490米),121.485023,31.242574,商务住宅
1601,上海耕荣贸易有限公司(江西中路),江西中路481号(近香港路)写上,121.484782,31.242405,公司企业
1602,河滨豪苑停车场,北苏州路668号,121.480264,31.240624,交通设施服务
1603,上海市黄浦区外滩街道北京居民委员会,北京东路288弄20号402室,121.484339,31.241769,政府机构及社会团体
1604,VITA 源?瑜伽普拉提(人民广场店),南京西路88号新世界丽笙酒店7楼,121.472949,31.234435,体育休闲服务
1605,华鑫旅行社(新世界城店),南京西路2新世界城L1层(人民广场地铁站19号口步行80米),121.474087,31.234786,生活服务
1606,艾莎酒店(上海南京路步行街店),宁波路240号-1号(南京东路地铁站5号口步行240米),121.48246,31.239034,住宿服务
1607,长城电器(宁波路店),山西南路349弄9-11号无锡小区,121.48103,31.238532,购物服务
1608,上海沪开电器成套厂(无锡小区店),宁波路350号(南京东路地铁站1号口步行390米),121.480594,31.238383,购物服务
1609,黄浦区建筑建材业安全质量监督站,山西南路225号(南京东路地铁站1号口步行180米),121.481851,31.237633,政府机构及社会团体
1610,三联光学中心,南京东路558号南京路步行街内(东侧),121.483229,31.237116,科教文化服务
1611,美联折扣超市,天津路285号(南京东路地铁站1号口步行290米),121.48102,31.237347,购物服务
1612,上海成安公司,天津路411-2号,121.478793,31.236648,公司企业
